,,,,,,2.97,2.26,1.93*07
$GPGSV,3,1,11,03,14,180,23,04,62,112,37,07,50,293,35,08,26,129,38*72
$GPGSV,3,2,11,09,81,349,34,16,,,37,20,,,27,26,02,044,*73
$GPGSV,3,3,11,27,27,089,36,30,23,274,36,48,47,197,*4B
$GPGLL,3606.62937,N,11504.39437,W,042741.00,A,A*7E
$GPRMC,042742.00,A,3606.62917,N,11504.39351,W,2.968,67.91,110823,,,A*4A
$GPVTG,67.91,T,,M,2.968,N,5.497,K,A*0E
$GPGGA,042742.00,3606.62917,N,11504.39351,W,1,06,2.26,532.4,M,-26.6,M,,*62
$GPGSA,A,3,07,27,04,30,09,08,,,,,,,2.97,2.26,1.93*07
$GPGSV,3,1,11,03,14,180,21,04,62,112,36,07,50,293,36,08,26,129,40*7D
$GPGSV,3,2,11,09,81,349,32,16,,,34,20,,,25,26,02,044,*74
$GPGSV,3,3,11,27,27,089,36,30,23,274,32,48,47,197,*4F
$GPGLL,3606.62917,N,11504.39351,W,042742.00,A,A*78
$GPRMC,042743.00,A,3606.62937,N,11504.39248,W,2.748,75.71,110823,,,A*41
$GPVTG,75.71,T,,M,2.748,N,5.090,K,A*0C
$GPGGA,042743.00,3606.62937,N,11504.39248,W,1,06,2.26,532.0,M,-26.6,M,,*6C
$GPGSA,A,3,07,27,04,30,09,08,,,,,,,2.97,2.26,1.93*07
$GPGSV,3,1,11,03,14,180,22,04,62,112,36,07,50,293,36,08,26,129,38*71
$GPGSV,3,2,11,09,81,349,34,16,,,34,20,,,24,26,02,044,*73
$GPGSV,3,3,11,27,27,089,33,30,23,274,35,48,47,197,*4D
$GPGLL,3606.62937,N,11504.39248,W,042743.00,A,A*72
$GPRMC,042744.00,A,3606.62983,N,11504.39124,W,3.144,80.55,110823,,,A*47
$GPVTG,80.55,T,,M,3.144,N,5.822,K,A*0A
$GPGGA,042744.00,3606.62983,N,11504.39124,W,1,06,2.26,531.3,M,-26.6,M,,*6D
$GPGSA,A,3,07,27,04,30,09,08,,,,,,,2.97,2.26,1.93*07
$GPGSV,3,1,11,03,14,180,23,04,62,112,37,07,50,293,34,08,26,129,40*7C
$GPGSV,3,2,11,09,81,349,34,16,,,33,20,,,30,26,02,044,*71
$GPGSV,3,3,11,27,27,089,37,30,23,274,34,48,47,197,*48
$GPGLL,3606.62983,N,11504.39124,W,042744.00,A,A*73
$GPRMC,042745.00,A,3606.63026,N,11504.39003,W,3.113,80.70,110823,,,A*40
$GPVTG,80.70,T,,M,3.113,N,5.765,K,A*03
$GPGGA,042745.00,3606.63026,N,11504.39003,W,1,06,2.26,530.6,M,-26.6,M,,*6B
$GPGSA,A,3,07,27,04,30,09,08,,,,,,,2.97,2.26,1.93*07
$GPGSV,3,1,11,03,14,180,24,04,62,112,37,07,50,293,35,08,26,129,36*7B
$GPGSV,3,2,11,09,81,349,34,16,,,33,20,,,24,26,02,044,*74
$GPGSV,3,3,11,27,27,089,37,30,23,274,31,48,47,197,*4D
$GPGLL,3606.63026,N,11504.39003,W,042745.00,A,A*71
$GPRMC,042746.00,A,3606.63024,N,11504.38895,W,3.248,87.69,110823,,,A*45
$GPVTG,87.69,T,,M,3.248,N,6.014,K,A*03
$GPGGA,042746.00,3606.63024,N,11504.38895,W,1,06,2.26,530.2,M,-26.6,M,,*68
$GPGSA,A,3,07,27,04,30,09,08,,,,,,,2.97,2.26,1.93*07
$GPGSV,3,1,11,03,14,180,23,04,62,112,37,07,50,293,32,08,26,129,39*74
$GPGSV,3,2,11,09,81,349,30,16,,,33,20,,,25,26,02,044,*71
$GPGSV,3,3,11,27,27,089,31,30,23,274,35,48,47,197,*4F
$GPGLL,3606.63024,N,11504.38895,W,042746.00,A,A*76
$GPRMC,042747.00,A,3606.63037,N,11504.38789,W,3.133,85.23,110823,,,A*47
$GPVTG,85.23,T,,M,3.133,N,5.802,K,A*0C
$GPGGA,042747.00,3606.63037,N,11504.38789,W,1,06,2.26,530.1,M,-26.6,M,,*6A
$GPGSA,A,3,07,27,04,30,09,08,,,,,,,2.97,2.26,1.93*07
$GPGSV,3,1,11,03,14,180,23,04,62,112,34,07,50,293,31,08,26,129,35*78
$GPGSV,3,2,11,09,81,349,34,16,,,36,20,,,24,26,02,044,*71
$GPGSV,3,3,11,27,27,089,30,30,23,274,31,48,47,197,*4A
$GPGLL,3606.63037,N,11504.38789,W,042747.00,A,A*77
$GPRMC,042748.00,A,3606.63035,N,11504.38689,W,2.800,89.71,110823,,,A*48
$GPVTG,89.71,T,,M,2.800,N,5.185,K,A*09
$GPGGA,042748.00,3606.63035,N,11504.38689,W,1,06,2.26,529.9,M,-26.6,M,,*66
$GPGSA,A,3,07,27,04,30,09,08,,,,,,,2.97,2.26,1.93*07
$GPGSV,3,1,11,03,14,180,22,04,62,112,37,07,50,293,32,08,26,129,38*74
$GPGSV,3,2,11,09,81,349,35,16,,,36,20,,,23,26,02,044,*77
$GPGSV,3,3,11,27,27,089,35,30,23,274,31,48,47,197,*4F
$GPGLL,3606.63035,N,11504.38689,W,042748.00,A,A*7B
$GPRMC,042749.00,A,3606.63037,N,11504.38571,W,3.452,89.89,110823,,,A*42
$GPVTG,89.89,T,,M,3.452,N,6.393,K,A*02
$GPGGA,042749.00,3606.63037,N,11504.38571,W,1,06,2.26,529.7,M,-26.6,M,,*6F
$GPGSA,A,3,07,27,04,30,09,08,,,,,,,2.97,2.26,1.93*07
$GPGSV,3,1,11,03,14,180,23,04,62,112,37,07,50,293,33,08,26,129,36*7A
$GPGSV,3,2,11,09,81,349,35,16,,,33,20,,,22,26,02,044,*73
$GPGSV,3,3,11,27,27,089,33,30,23,274,26,48,47,197,*4F
$GPGLL,3606.63037,N,11504.38571,W,042749.00,A,A*7C
$GPRMC,042750.00,A,3606.63032,N,11504.38461,W,3.324,89.06,110823,,,A*4E
$GPVTG,89.06,T,,M,3.324,N,6.156,K,A*08
$GPGGA,042750.00,3606.63032,N,11504.38461,W,1,06,2.26,529.7,M,-26.6,M,,*62
$GPGSA,A,3,07,27,04,30,09,08,,,,,,,2.97,2.26,1.93*07
$GPGSV,3,1,11,03,14,180,23,04,62,112,35,07,50,293,35,08,26,129,36*7E
$GPGSV,3,2,11,09,81,349,35,16,,,33,20,,,30,26,02,044,*70
$GPGSV,3,3,11,27,27,089,32,30,23,274,29,48,47,197,*41
$GPGLL,3606.63032,N,11504.38461,W,042750.00,A,A*71
$GPRMC,042751.00,A,3606.63041,N,11504.38336,W,3.623,89.16,110823,,,A*4D
$GPVTG,89.16,T,,M,3.623,N,6.710,K,A*0F
$GPGGA,042751.00,3606.63041,N,11504.38336,W,1,06,2.26,529.5,M,-26.6,M,,*60
$GPGSA,A,3,07,27,04,30,09,08,,,,,,,2.97,2.26,1.93*07
$GPGSV,3,1,11,03,14,180,21,04,62,112,37,07,50,293,32,08,26,129,33*7C
$GPGSV,3,2,11,09,81,349,33,16,,,33,20,,,23,26,02,044,*74
$GPGSV,3,3,11,27,27,089,32,30,23,274,29,48,47,197,*41
$GPGLL,3606.63041,N,11504.38336,W,042751.00,A,A*71
$GPRMC,042752.00,A,3606.63039,N,11504.38219,W,3.426,,110823,,,A*62
$GPVTG,,T,,M,3.426,N,6.346,K,A*27
$GPGGA,042752.00,3606.63039,N,11504.38219,W,1,06,2.26,529.5,M,-26.6,M,,*60
$GPGSA,A,3,07,27,04,30,09,08,,,,,,,2.97,2.26,1.93*07
$GPGSV,3,1,11,03,14,180,21,04,62,112,35,07,50,293,32,08,26,129,23*7F
$GPGSV,3,2,11,09,81,349,33,16,,,33,20,,,30,26,02,044,*76
$GPGSV,3,3,11,27,27,089,31,30,23,274,29,48,47,197,*42
$GPGLL,3606.63039,N,11504.38219,W,042752.00,A,A*71
$GPRMC,042753.00,A,3606.63028,N,11504.38104,W,3.582,88.64,110823,,,A*4F
$GPVTG,88.64,T,,M,3.582,N,6.634,K,A*04
$GPGGA,042753.00,3606.63028,N,11504.38104,W,1,06,2.26,529.9,M,-26.6,M,,*62
$GPGSA,A,3,07,27,04,30,09,08,,,,,,,2.97,2.26,1.93*07
$GPGSV,3,1,11,03,14,180,20,04,62,112,35,07,50,293,34,08,26,129,34*7E
$GPGSV,3,2,11,09,81,349,33,16,,,34,20,,,24,26,02,044,*74
$GPGSV,3,3,11,27,27,089,35,30,24,274,32,48,47,197,*4B
$GPGLL,3606.63028,N,11504.38104,W,042753.00,A,A*7F
$GPRMC,042754.00,A,3606.63025,N,11504.37982,W,3.768,89.39,110823,,,A*43
$GPVTG,89.39,T,,M,3.768,N,6.978,K,A*0C
$GPGGA,042754.00,3606.63025,N,11504.37982,W,1,06,2.26,530.1,M,-26.6,M,,*61
$GPGSA,A,3,07,27,04,30,09,08,,,,,,,2.97,2.26,1.93*07
$GPGSV,3,1,11,03,14,180,19,04,62,112,35,07,50,293,34,08,26,129,34*74
$GPGSV,3,2,11,09,81,349,33,16,,,36,20,,,25,26,02,044,*77
$GPGSV,3,3,11,27,27,089,32,30,24,274,34,48,47,197,*4A
$GPGLL,3606.63025,N,11504.37982,W,042754.00,A,A*7C
$GPRMC,042755.00,A,3606.63033,N,11504.37853,W,3.817,92.93,110823,,,A*45
$GPVTG,92.93,T,,M,3.817,N,7.070,K,A*01
$GPGGA,042755.00,3606.63033,N,11504.37853,W,1,06,2.26,530.4,M,-26.6,M,,*6F
$GPGSA,A,3,07,27,04,30,09,08,,,,,,,2.97,2.26,1.93*07
$GPGSV,3,1,11,03,14,180,18,04,62,112,37,07,50,293,31,08,26,129,39*7F
$GPGSV,3,2,11,09,81,349,34,16,,,33,20,,,29,26,02,044,*79
$GPGSV,3,3,11,27,27,089,32,30,24,274,31,48,47,197,*4F
$GPGLL,3606.63033,N,11504.37853,W,042755.00,A,A*77
$GPRMC,042756.00,A,3606.63025,N,11504.37727,W,3.716,94.00,110823,,,A*4F
$GPVTG,94.00,T,,M,3.716,N,6.882,K,A*07
$GPGGA,042756.00,3606.63025,N,11504.37727,W,1,06,2.26,530.5,M,-26.6,M,,*66
$GPGSA,A,3,07,27,04,30,09,08,,,,,,,2.97,2.26,1.93*07
$GPGSV,3,1,11,03,14,180,20,04,62,112,37,07,50,293,31,08,26,129,39*74
$GPGSV,3,2,11,09,81,349,34,16,,,37,20,,,28,26,02,044,*7C
$GPGSV,3,3,11,27,27,089,31,30,24,274,34,48,47,197,*49
$GPGLL,3606.63025,N,11504.37727,W,042756.00,A,A*7F
$GPRMC,042757.00,A,3606.62995,N,11504.37609,W,3.704,94.41,110823,,,A*46
$GPVTG,94.41,T,,M,3.704,N,6.860,K,A*0D
$GPGGA,042757.00,3606.62995,N,11504.37609,W,1,07,1.31,530.6,M,-26.6,M,,*6E
$GPGSA,A,3,07,27,04,16,30,09,08,,,,,,2.17,1.31,1.73*03
$GPGSV,3,1,11,03,14,180,21,04,62,112,37,07,50,293,31,08,26,129,39*75
$GPGSV,3,2,11,09,81,349,34,16,30,045,34,20,,,28,26,02,044,*4D
$GPGSV,3,3,11,27,27,089,27,30,24,274,37,48,47,197,*4D
$GPGLL,3606.62995,N,11504.37609,W,042757.00,A,A*70
$GPRMC,042758.00,A,3606.62980,N,11504.37493,W,3.684,95.15,110823,,,A*45
$GPVTG,95.15,T,,M,3.684,N,6.823,K,A*03
$GPGGA,042758.00,3606.62980,N,11504.37493,W,1,07,1.31,530.6,M,-26.6,M,,*64
$GPGSA,A,3,07,27,04,16,30,09,08,,,,,,2.17,1.31,1.73*03
$GPGSV,3,1,11,03,14,180,21,04,62,112,36,07,50,293,33,08,26,129,35*7A
$GPGSV,3,2,11,09,81,349,30,16,30,045,33,20,,,26,26,02,044,*40
$GPGSV,3,3,11,27,27,089,32,30,24,274,34,48,47,197,*4A
$GPGLL,3606.62980,N,11504.37493,W,042758.00,A,A*7A
$GPRMC,042759.00,A,3606.62958,N,11504.37371,W,3.910,93.96,110823,,,A*45
$GPVTG,93.96,T,,M,3.910,N,7.242,K,A*00
$GPGGA,042759.00,3606.62958,N,11504.37371,W,1,07,1.31,530.8,M,-26.6,M,,*65
$GPGSA,A,3,07,27,04,16,30,09,08,,,,,,2.17,1.31,1.73*03
$GPGSV,3,1,11,03,14,180,20,04,62,112,38,07,50,293,29,08,26,129,31*7A
$GPGSV,3,2,11,09,81,349,34,16,30,045,33,20,,,26,26,02,044,*44
$GPGSV,3,3,11,27,27,089,31,30,24,274,31,48,47,197,*4C
$GPGLL,3606.62958,N,11504.37371,W,042759.00,A,A*75
$GPRMC,042800.00,A,3606.62972,N,11504.37246,W,3.383,92.09,110823,,,A*4C
$GPVTG,92.09,T,,M,3.383,N,6.265,K,A*03
$GPGGA,042800.00,3606.62972,N,11504.37246,W,1,07,1.31,530.5,M,-26.6,M,,*66
$GPGSA,A,3,07,27,04,16,30,09,08,,,,,,2.17,1.31,1.73*03
$GPGSV,3,1,11,03,14,180,20,04,62,112,38,07,50,293,33,08,26,129,35*75
$GPGSV,3,2,11,09,81,349,33,16,30,045,33,20,,,25,26,02,044,*40
$GPGSV,3,3,11,27,27,089,34,30,24,274,30,48,47,197,*48
$GPGLL,3606.62972,N,11504.37246,W,042800.00,A,A*7B
$GPRMC,042801.00,A,3606.62955,N,11504.37130,W,3.546,96.45,110823,,,A*49
$GPVTG,96.45,T,,M,3.546,N,6.567,K,A*05
$GPGGA,042801.00,3606.62955,N,11504.37130,W,1,07,1.31,530.5,M,-26.6,M,,*60
$GPGSA,A,3,07,27,04,16,30,09,08,,,,,,2.17,1.31,1.73*03
$GPGSV,3,1,11,03,14,180,18,04,62,112,37,07,50,293,32,08,26,129,31*74
$GPGSV,3,2,11,09,81,349,32,16,30,045,31,20,,,24,26,02,044,*42
$GPGSV,3,3,11,27,27,089,34,30,24,274,30,48,47,197,*48
$GPGLL,3606.62955,N,11504.37130,W,042801.00,A,A*7D
$GPRMC,042802.00,A,3606.62961,N,11504.37013,W,3.099,93.23,110823,,,A*4F
$GPVTG,93.23,T,,M,3.099,N,5.740,K,A*03
$GPGGA,042802.00,3606.62961,N,11504.37013,W,1,07,1.31,530.5,M,-26.6,M,,*64
$GPGSA,A,3,07,27,04,16,30,09,08,,,,,,2.17,1.31,1.73*03
$GPGSV,3,1,11,03,14,180,19,04,62,112,36,07,50,293,37,08,26,129,27*76
$GPGSV,3,2,11,09,81,349,28,16,30,045,33,20,,,23,26,02,044,*4C
$GPGSV,3,3,11,27,27,089,30,30,24,274,37,48,47,197,*4B
$GPGLL,3606.62961,N,11504.37013,W,042802.00,A,A*79
$GPRMC,042803.00,A,3606.62951,N,11504.36903,W,3.314,92.35,110823,,,A*44
$GPVTG,92.35,T,,M,3.314,N,6.138,K,A*09
$GPGGA,042803.00,3606.62951,N,11504.36903,W,1,07,1.31,530.7,M,-26.6,M,,*6D
$GPGSA,A,3,07,27,04,16,30,09,08,,,,,,2.17,1.31,1.73*03
$GPGSV,3,1,11,03,14,180,20,04,62,112,38,07,50,293,31,08,26,129,25*76
$GPGSV,3,2,11,09,81,349,32,16,30,045,33,20,,,20,26,02,044,*44
$GPGSV,3,3,11,27,27,089,30,30,24,274,40,48,47,197,*4B
$GPGLL,3606.62951,N,11504.36903,W,042803.00,A,A*72
$GPRMC,042804.00,A,3606.62945,N,11504.36796,W,3.092,91.44,110823,,,A*4C
$GPVTG,91.44,T,,M,3.092,N,5.726,K,A*0B
$GPGGA,042804.00,3606.62945,N,11504.36796,W,1,07,1.31,530.6,M,-26.6,M,,*6C
$GPGSA,A,3,07,27,04,16,30,09,08,,,,,,2.17,1.31,1.73*03
$GPGSV,3,1,11,03,14,180,21,04,62,112,35,07,50,293,32,08,26,129,35*78
$GPGSV,3,2,11,09,81,349,35,16,30,045,34,20,,,20,26,02,044,*44
$GPGSV,3,3,11,27,27,089,31,30,24,274,34,48,47,197,*49
$GPGLL,3606.62945,N,11504.36796,W,042804.00,A,A*72
$GPRMC,042805.00,A,3606.62950,N,11504.36701,W,2.868,88.76,110823,,,A*42
$GPVTG,88.76,T,,M,2.868,N,5.312,K,A*0D
$GPGGA,042805.00,3606.62950,N,11504.36701,W,1,07,1.31,530.5,M,-26.6,M,,*64
$GPGSA,A,3,07,27,04,16,30,09,08,,,,,,2.17,1.31,1.73*03
$GPGSV,3,1,11,03,14,180,19,04,62,112,37,07,50,293,31,08,26,129,31*76
$GPGSV,3,2,11,09,81,349,35,16,30,045,31,20,,,22,26,02,044,*43
$GPGSV,3,3,11,27,27,089,32,30,24,274,34,48,47,197,*4A
$GPGLL,3606.62950,N,11504.36701,W,042805.00,A,A*79
$GPRMC,042806.00,A,3606.62921,N,11504.36620,W,2.726,90.14,110823,,,A*4D
$GPVTG,90.14,T,,M,2.726,N,5.048,K,A*09
$GPGGA,042806.00,3606.62921,N,11504.36620,W,1,07,1.31,530.7,M,-26.6,M,,*61
$GPGSA,A,3,07,27,04,16,30,09,08,,,,,,2.17,1.31,1.73*03
$GPGSV,3,1,11,03,14,180,18,04,62,112,35,07,50,293,31,08,26,129,31*75
$GPGSV,3,2,11,09,81,349,31,16,30,045,37,20,,,24,26,02,044,*47
$GPGSV,3,3,11,27,27,089,26,30,24,274,33,48,47,197,*48
$GPGLL,3606.62921,N,11504.36620,W,042806.00,A,A*7E
$GPRMC,042807.00,A,3606.62931,N,11504.36529,W,2.520,89.60,110823,,,A*48
$GPVTG,89.60,T,,M,2.520,N,4.667,K,A*0C
$GPGGA,042807.00,3606.62931,N,11504.36529,W,1,07,1.31,530.9,M,-26.6,M,,*65
$GPGSA,A,3,07,27,04,16,30,09,08,,,,,,2.17,1.31,1.73*03
$GPGSV,3,1,11,03,14,180,18,04,62,112,35,07,50,293,32,08,26,129,35*72
$GPGSV,3,2,11,09,81,349,34,16,30,045,29,20,,,25,26,02,044,*4C
$GPGSV,3,3,11,27,27,089,32,30,24,274,33,48,47,197,*4D
$GPGLL,3606.62931,N,11504.36529,W,042807.00,A,A*74
$GPRMC,042808.00,A,3606.62939,N,11504.36446,W,2.239,83.33,110823,,,A*44
$GPVTG,83.33,T,,M,2.239,N,4.146,K,A*0B
$GPGGA,042808.00,3606.62939,N,11504.36446,W,1,07,1.31,530.7,M,-26.6,M,,*64
$GPGSA,A,3,07,27,04,16,30,09,08,,,,,,2.17,1.31,1.73*03
$GPGSV,3,1,11,03,14,180,19,04,62,112,33,07,50,293,33,08,26,129,39*78
$GPGSV,3,2,11,09,81,349,34,16,30,045,34,20,,,25,26,02,044,*40
$GPGSV,3,3,11,27,27,089,32,30,24,274,34,48,47,197,*4A
$GPGLL,3606.62939,N,11504.36446,W,042808.00,A,A*7B
$GPRMC,042809.00,A,3606.62950,N,11504.36364,W,2.555,82.86,110823,,,A*4F
$GPVTG,82.86,T,,M,2.555,N,4.733,K,A*0D
$GPGGA,042809.00,3606.62950,N,11504.36364,W,1,07,1.31,530.7,M,-26.6,M,,*6D
$GPGSA,A,3,07,27,04,16,30,09,08,,,,,,2.17,1.31,1.73*03
$GPGSV,3,1,11,03,14,180,20,04,62,112,35,07,50,293,30,08,26,129,39*77
$GPGSV,3,2,11,09,81,349,34,16,30,045,34,20,,,24,26,02,044,*41
$GPGSV,3,3,11,27,27,089,36,30,24,274,33,48,47,197,*49
$GPGLL,3606.62950,N,11504.36364,W,042809.00,A,A*72
$GPRMC,042810.00,A,3606.62960,N,11504.36276,W,2.411,83.17,110823,,,A*4E
$GPVTG,83.17,T,,M,2.411,N,4.466,K,A*06
$GPGGA,042810.00,3606.62960,N,11504.36276,W,1,07,1.31,530.7,M,-26.6,M,,*64
$GPGSA,A,3,07,27,04,16,30,09,08,,,,,,2.17,1.31,1.73*03
$GPGSV,3,1,11,03,14,180,23,04,62,112,32,07,50,293,30,08,26,129,36*7C
$GPGSV,3,2,11,09,81,349,31,16,30,045,31,20,,,30,26,02,044,*44
$GPGSV,3,3,11,27,27,089,36,30,24,274,32,48,47,197,*48
$GPGLL,3606.62960,N,11504.36276,W,042810.00,A,A*7B
$GPRMC,042811.00,A,3606.62963,N,11504.36180,W,2.948,83.37,110823,,,A*45
$GPVTG,83.37,T,,M,2.948,N,5.460,K,A*02
$GPGGA,042811.00,3606.62963,N,11504.36180,W,1,07,1.31,530.8,M,-26.6,M,,*63
$GPGSA,A,3,07,27,04,16,30,09,08,,,,,,2.17,1.31,1.73*03
$GPGSV,3,1,11,03,14,180,23,04,62,112,29,07,50,293,32,08,26,129,33*71
$GPGSV,3,2,11,09,81,349,32,16,30,045,32,20,,,30,26,02,044,*44
$GPGSV,3,3,11,27,27,089,36,30,24,274,33,48,47,197,*49
$GPGLL,3606.62963,N,11504.36180,W,042811.00,A,A*73
$GPRMC,042812.00,A,3606.62961,N,11504.36071,W,3.138,84.85,110823,,,A*4B
$GPVTG,84.85,T,,M,3.138,N,5.811,K,A*08
$GPGGA,042812.00,3606.62961,N,11504.36071,W,1,07,1.31,530.5,M,-26.6,M,,*60
$GPGSA,A,3,07,27,04,16,30,09,08,,,,,,2.17,1.31,1.73*03
$GPGSV,3,1,11,03,14,180,23,04,62,112,30,07,50,293,31,08,26,129,37*7E
$GPGSV,3,2,11,09,81,349,30,16,30,045,28,20,,,23,26,02,044,*4F
$GPGSV,3,3,11,27,27,089,32,30,24,274,31,48,47,197,*4F
$GPGLL,3606.62961,N,11504.36071,W,042812.00,A,A*7D
$GPRMC,042813.00,A,3606.62960,N,11504.35951,W,3.337,88.50,110823,,,A*4A
$GPVTG,88.50,T,,M,3.337,N,6.179,K,A*05
$GPGGA,042813.00,3606.62960,N,11504.35951,W,1,07,1.31,530.3,M,-26.6,M,,*6E
$GPGSA,A,3,07,27,04,16,30,09,08,,,,,,2.17,1.31,1.73*03
$GPGSV,3,1,11,03,14,180,22,04,62,112,34,07,50,293,31,08,26,129,38*74
$GPGSV,3,2,11,09,81,349,31,16,30,045,35,20,,,30,26,02,044,*40
$GPGSV,3,3,11,27,27,089,33,30,24,274,31,48,47,197,*4E
$GPGLL,3606.62960,N,11504.35951,W,042813.00,A,A*75
$GPRMC,042814.00,A,3606.62966,N,11504.35843,W,3.024,90.87,110823,,,A*4B
$GPVTG,90.87,T,,M,3.024,N,5.601,K,A*0C
$GPGGA,042814.00,3606.62966,N,11504.35843,W,1,07,1.31,529.6,M,-26.6,M,,*60
$GPGSA,A,3,07,27,04,16,30,09,08,,,,,,2.17,1.31,1.73*03
$GPGSV,3,1,11,03,14,180,23,04,62,112,38,07,50,293,32,08,26,129,36*74
$GPGSV,3,2,11,09,81,350,37,16,30,045,35,20,,,33,26,02,044,*4D
$GPGSV,3,3,11,27,27,089,28,30,24,274,27,48,47,197,*43
$GPGLL,3606.62966,N,11504.35843,W,042814.00,A,A*76
$GPRMC,042815.00,A,3606.62949,N,11504.35717,W,3.910,94.54,110823,,,A*4D
$GPVTG,94.54,T,,M,3.910,N,7.240,K,A*0B
$GPGGA,042815.00,3606.62949,N,11504.35717,W,1,07,1.31,529.5,M,-26.6,M,,*61
$GPGSA,A,3,07,27,04,16,30,09,08,,,,,,2.17,1.31,1.73*03
$GPGSV,3,1,11,03,14,180,22,04,62,112,31,07,50,293,32,08,26,129,29*72
$GPGSV,3,2,11,09,81,350,32,16,30,045,31,20,,,27,26,02,044,*49
$GPGSV,3,3,11,27,27,089,29,30,24,274,33,48,47,197,*47
$GPGLL,3606.62949,N,11504.35717,W,042815.00,A,A*74
$GPRMC,042816.00,A,3606.62939,N,11504.35603,W,3.231,89.66,110823,,,A*48
$GPVTG,89.66,T,,M,3.231,N,5.984,K,A*0F
$GPGGA,042816.00,3606.62939,N,11504.35603,W,1,07,1.31,529.3,M,-26.6,M,,*67
$GPGSA,A,3,07,27,04,16,30,09,08,,,,,,2.17,1.31,1.73*03
$GPGSV,3,1,11,03,14,180,22,04,62,112,35,07,50,293,33,08,26,129,36*79
$GPGSV,3,2,11,09,81,350,29,16,30,045,32,20,,,26,26,02,044,*41
$GPGSV,3,3,11,27,27,089,29,30,24,274,37,48,47,197,*43
$GPGLL,3606.62939,N,11504.35603,W,042816.00,A,A*74
$GPRMC,042817.00,A,3606.62950,N,11504.35481,W,3.676,87.21,110823,,,A*44
$GPVTG,87.21,T,,M,3.676,N,6.808,K,A*03
$GPGGA,042817.00,3606.62950,N,11504.35481,W,1,07,1.31,529.4,M,-26.6,M,,*66
$GPGSA,A,3,07,27,04,16,30,09,08,,,,,,2.17,1.31,1.73*03
$GPGSV,3,1,11,03,14,180,23,04,62,112,32,07,50,293,33,08,26,129,30*79
$GPGSV,3,2,11,09,81,350,31,16,30,045,34,20,,,26,26,02,044,*4E
$GPGSV,3,3,11,27,27,089,28,30,24,274,33,48,47,197,*46
$GPGLL,3606.62950,N,11504.35481,W,042817.00,A,A*72
$GPRMC,042818.00,A,3606.62968,N,11504.35362,W,3.439,84.71,110823,,,A*45
$GPVTG,84.71,T,,M,3.439,N,6.369,K,A*00
$GPGGA,042818.00,3606.62968,N,11504.35362,W,1,07,1.31,529.8,M,-26.6,M,,*64
$GPGSA,A,3,07,27,04,16,30,09,08,,,,,,2.17,1.31,1.73*03
$GPGSV,3,1,11,03,14,180,24,04,62,112,32,07,50,293,34,08,26,129,29*71
$GPGSV,3,2,11,09,81,350,32,16,30,045,30,20,,,26,26,02,044,*49
$GPGSV,3,3,11,27,27,089,26,30,24,274,30,48,47,197,*4B
$GPGLL,3606.62968,N,11504.35362,W,042818.00,A,A*7C
$GPRMC,042819.00,A,3606.62978,N,11504.35239,W,3.589,86.70,110823,,,A*43
$GPVTG,86.70,T,,M,3.589,N,6.647,K,A*00
$GPGGA,042819.00,3606.62978,N,11504.35239,W,1,07,1.31,530.0,M,-26.6,M,,*6B
$GPGSA,A,3,07,27,04,16,30,09,08,,,,,,2.17,1.31,1.73*03
$GPGSV,3,1,11,03,14,180,23,04,62,112,28,07,50,293,35,08,26,129,29*7C
$GPGSV,3,2,11,09,81,350,32,16,30,045,30,20,,,26,26,02,044,*49
$GPGSV,3,3,11,27,27,089,26,30,24,274,32,48,47,197,*49
$GPGLL,3606.62978,N,11504.35239,W,042819.00,A,A*73
$GPRMC,042820.00,A,3606.62977,N,11504.35112,W,3.740,88.79,110823,,,A*4C
$GPVTG,88.79,T,,M,3.740,N,6.927,K,A*09
$GPGGA,042820.00,3606.62977,N,11504.35112,W,1,07,1.31,530.4,M,-26.6,M,,*60
$GPGSA,A,3,07,27,04,16,30,09,08,,,,,,2.17,1.31,1.73*03
$GPGSV,3,1,11,03,14,180,20,04,62,112,27,07,50,293,35,08,26,129,30*78
$GPGSV,3,2,11,09,81,350,32,16,30,045,30,20,,,26,26,02,044,*49
$GPGSV,3,3,11,27,27,089,31,30,24,274,31,48,47,197,*4C
$GPGLL,3606.62977,N,11504.35112,W,042820.00,A,A*7C
$GPRMC,042821.00,A,3606.62965,N,11504.35001,W,3.203,91.87,110823,,,A*46
$GPVTG,91.87,T,,M,3.203,N,5.933,K,A*04
$GPGGA,042821.00,3606.62965,N,11504.35001,W,1,07,1.31,530.3,M,-26.6,M,,*66
$GPGSA,A,3,07,27,04,16,30,09,08,,,,,,2.17,1.31,1.73*03
$GPGSV,3,1,11,03,14,180,18,04,62,112,27,07,50,293,31,08,26,129,34*73
$GPGSV,3,2,11,09,81,350,31,16,30,045,30,20,,,25,26,02,044,*49
$GPGSV,3,3,11,27,27,089,27,30,24,274,26,48,47,197,*4D
$GPGLL,3606.62965,N,11504.35001,W,042821.00,A,A*7D
$GPRMC,042822.00,A,3606.62959,N,11504.34896,W,3.151,94.95,110823,,,A*4F
$GPVTG,94.95,T,,M,3.151,N,5.836,K,A*02
$GPGGA,042822.00,3606.62959,N,11504.34896,W,1,07,1.31,530.7,M,-26.6,M,,*69
$GPGSA,A,3,07,27,04,16,30,09,08,,,,,,2.17,1.31,1.73*03
$GPGSV,3,1,11,03,14,180,19,04,62,112,27,07,50,293,31,08,26,129,34*72
$GPGSV,3,2,11,09,81,350,27,16,30,045,33,20,,,25,26,02,044,*4D
$GPGSV,3,3,11,27,27,088,28,30,24,274,27,48,47,197,*42
$GPGLL,3606.62959,N,11504.34896,W,042822.00,A,A*76
$GPRMC,042823.00,A,3606.62945,N,11504.34765,W,4.137,96.90,110823,,,A*40
$GPVTG,96.90,T,,M,4.137,N,7.662,K,A*0F
$GPGGA,042823.00,3606.62945,N,11504.34765,W,1,07,1.31,530.8,M,-26.6,M,,*69
$GPGSA,A,3,07,27,04,16,30,09,08,,,,,,2.17,1.31,1.73*03
$GPGSV,3,1,11,03,14,180,22,04,62,112,32,07,50,293,31,08,26,129,30*7A
$GPGSV,3,2,11,09,81,350,29,16,30,045,32,20,,,24,26,02,044,*43
$GPGSV,3,3,11,27,27,088,33,30,24,274,31,48,47,197,*4F
$GPGLL,3606.62945,N,11504.34765,W,042823.00,A,A*79
$GPRMC,042824.00,A,3606.62929,N,11504.34648,W,3.355,98.61,110823,,,A*42
$GPVTG,98.61,T,,M,3.355,N,6.214,K,A*0A
$GPGGA,042824.00,3606.62929,N,11504.34648,W,1,07,1.31,530.8,M,-26.6,M,,*6A
$GPGSA,A,3,07,27,04,16,30,09,08,,,,,,2.17,1.31,1.73*03
$GPGSV,3,1,11,03,14,180,30,04,62,112,32,07,50,293,28,08,26,129,30*71
$GPGSV,3,2,11,09,81,350,32,16,30,045,32,20,,,23,26,02,044,*4E
$GPGSV,3,3,11,27,27,088,33,30,24,274,25,48,47,197,*4A
$GPGLL,3606.62929,N,11504.34648,W,042824.00,A,A*7A
$GPRMC,042825.00,A,3606.62926,N,11504.34540,W,3.346,95.16,110823,,,A*48
$GPVTG,95.16,T,,M,3.346,N,6.197,K,A*0D
$GPGGA,042825.00,3606.62926,N,11504.34540,W,1,07,1.31,530.9,M,-26.6,M,,*6E
$GPGSA,A,3,07,27,04,16,30,09,08,,,,,,2.17,1.31,1.73*03
$GPGSV,3,1,11,03,14,180,34,04,62,112,32,07,50,293,29,08,26,129,23*76
$GPGSV,3,2,11,09,81,350,31,16,30,045,27,20,,,22,26,02,044,*48
$GPGSV,3,3,11,27,27,088,33,30,24,274,31,48,47,197,*4F
$GPGLL,3606.62926,N,11504.34540,W,042825.00,A,A*7F
$GPRMC,042826.00,A,3606.62915,N,11504.34433,W,3.334,94.75,110823,,,A*4F
$GPVTG,94.75,T,,M,3.334,N,6.175,K,A*00
$GPGGA,042826.00,3606.62915,N,11504.34433,W,1,07,1.31,530.7,M,-26.6,M,,*66
$GPGSA,A,3,07,27,04,16,30,09,08,,,,,,2.17,1.31,1.73*03
$GPGSV,3,1,11,03,14,180,33,04,62,112,28,07,50,293,33,08,26,129,30*73
$GPGSV,3,2,11,09,81,350,33,16,30,045,27,20,,,21,26,02,044,*49
$GPGSV,3,3,11,27,27,088,33,30,24,274,25,48,47,197,*4A
$GPGLL,3606.62915,N,11504.34433,W,042826.00,A,A*79
$GPRMC,042827.00,A,3606.62911,N,11504.34328,W,3.042,93.63,110823,,,A*45
$GPVTG,93.63,T,,M,3.042,N,5.634,K,A*03
$GPGGA,042827.00,3606.62911,N,11504.34328,W,1,07,1.31,530.8,M,-26.6,M,,*61
$GPGSA,A,3,07,27,04,16,30,09,08,,,,,,2.17,1.31,1.73*03
$GPGSV,3,1,11,03,14,180,32,04,62,112,32,07,50,293,33,08,26,129,22*7A
$GPGSV,3,2,11,09,81,350,34,16,30,045,27,20,,,21,26,02,044,*4E
$GPGSV,3,3,11,27,27,088,29,30,24,274,24,48,47,197,*40
$GPGLL,3606.62911,N,11504.34328,W,042827.00,A,A*71
$GPRMC,042828.00,A,3606.62913,N,11504.34223,W,3.000,91.03,110823,,,A*40
$GPVTG,91.03,T,,M,3.000,N,5.555,K,A*05
$GPGGA,042828.00,3606.62913,N,11504.34223,W,1,07,1.31,530.7,M,-26.6,M,,*69
$GPGSA,A,3,07,27,04,16,30,09,08,,,,,,2.17,1.31,1.73*03
$GPGSV,3,1,11,03,14,180,28,04,62,112,26,07,50,293,33,08,26,129,29*7F
$GPGSV,3,2,11,09,81,350,32,16,30,045,27,20,,,20,26,02,044,*49
$GPGSV,3,3,11,27,27,088,30,30,24,274,26,48,47,197,*4A
$GPGLL,3606.62913,N,11504.34223,W,042828.00,A,A*76
$GPRMC,042829.00,A,3606.62888,N,11504.34132,W,2.993,100.04,110823,,,A*7D
$GPVTG,100.04,T,,M,2.993,N,5.543,K,A*3E
$GPGGA,042829.00,3606.62888,N,11504.34132,W,1,07,1.31,530.9,M,-26.6,M,,*66
$GPGSA,A,3,07,27,04,16,30,09,08,,,,,,2.17,1.31,1.73*03
$GPGSV,3,1,11,03,14,180,28,04,62,112,31,07,50,293,34,08,26,129,29*7E
$GPGSV,3,2,11,09,81,350,32,16,30,045,27,20,,,20,26,02,044,*49
$GPGSV,3,3,11,27,27,088,34,30,24,274,32,48,47,197,*4B
$GPGLL,3606.62888,N,11504.34132,W,042829.00,A,A*77
$GPRMC,042830.00,A,3606.62875,N,11504.34043,W,2.601,101.31,110823,,,A*73
$GPVTG,101.31,T,,M,2.601,N,4.817,K,A*30
$GPGGA,042830.00,3606.62875,N,11504.34043,W,1,07,1.31,531.3,M,-26.6,M,,*60
$GPGSA,A,3,07,27,04,16,30,09,08,,,,,,2.17,1.31,1.73*03
$GPGSV,3,1,11,03,14,180,32,04,62,112,33,07,50,293,37,08,26,129,29*74
$GPGSV,3,2,11,09,81,350,31,16,30,045,28,20,,,23,26,02,044,*46
$GPGSV,3,3,11,27,27,088,34,30,24,274,35,48,47,197,*4C
$GPGLL,3606.62875,N,11504.34043,W,042830.00,A,A*7A
$GPRMC,042831.00,A,3606.62881,N,11504.33954,W,2.645,91.43,110823,,,A*4C
$GPVTG,91.43,T,,M,2.645,N,4.899,K,A*0B
$GPGGA,042831.00,3606.62881,N,11504.33954,W,1,07,1.31,531.5,M,-26.6,M,,*64
$GPGSA,A,3,07,27,04,16,30,09,08,,,,,,2.17,1.31,1.73*03
$GPGSV,3,1,11,03,14,180,25,04,62,112,29,07,50,293,34,08,26,129,34*76
$GPGSV,3,2,11,09,81,350,31,16,30,045,32,20,,,22,26,02,044,*4C
$GPGSV,3,3,11,27,27,088,33,30,24,274,26,48,47,197,*49
$GPGLL,3606.62881,N,11504.33954,W,042831.00,A,A*78
$GPRMC,042832.00,A,3606.62898,N,11504.33868,W,2.615,84.40,110823,,,A*4B
$GPVTG,84.40,T,,M,2.615,N,4.842,K,A*0F
$GPGGA,042832.00,3606.62898,N,11504.33868,W,1,07,1.31,531.7,M,-26.6,M,,*63
$GPGSA,A,3,07,27,04,16,30,09,08,,,,,,2.17,1.31,1.73*03
$GPGSV,3,1,11,03,14,180,23,04,62,112,34,07,50,293,30,08,26,129,25*78
$GPGSV,3,2,11,09,81,350,31,16,30,045,31,20,,,24,26,02,044,*49
$GPGSV,3,3,11,27,27,088,33,30,24,274,32,48,47,197,*4C
$GPGLL,3606.62898,N,11504.33868,W,042832.00,A,A*7D
$GPRMC,042833.00,A,3606.62907,N,11504.33785,W,2.319,83.74,110823,,,A*48
$GPVTG,83.74,T,,M,2.319,N,4.295,K,A*06
$GPGGA,042833.00,3606.62907,N,11504.33785,W,1,07,1.31,532.0,M,-26.6,M,,*6D
$GPGSA,A,3,07,27,04,16,30,09,08,,,,,,2.17,1.31,1.73*03
$GPGSV,3,1,11,03,14,180,22,04,62,112,34,07,50,293,33,08,26,129,31*7F
$GPGSV,3,2,11,09,81,350,30,16,30,045,30,20,,,25,26,02,044,*48
$GPGSV,3,3,11,27,27,088,30,30,24,274,36,48,47,197,*4B
$GPGLL,3606.62907,N,11504.33785,W,042833.00,A,A*77
$GPRMC,042834.00,A,3606.62902,N,11504.33702,W,2.585,87.08,110823,,,A*49
$GPVTG,87.08,T,,M,2.585,N,4.787,K,A*0C
$GPGGA,042834.00,3606.62902,N,11504.33702,W,1,07,1.31,531.9,M,-26.6,M,,*6A
$GPGSA,A,3,07,27,04,16,30,09,08,,,,,,2.17,1.31,1.73*03
$GPGSV,3,1,11,03,14,180,20,04,62,112,34,07,50,293,28,08,26,129,36*70
$GPGSV,3,2,11,09,81,350,31,16,30,045,30,20,,,27,26,02,044,*4B
$GPGSV,3,3,11,27,27,088,29,30,24,274,26,48,47,197,*42
$GPGLL,3606.62902,N,11504.33702,W,042834.00,A,A*7A
$GPRMC,042835.00,A,3606.62904,N,11504.33625,W,2.413,86.31,110823,,,A*4F
$GPVTG,86.31,T,,M,2.413,N,4.469,K,A*0A
$GPGGA,042835.00,3606.62904,N,11504.33625,W,1,07,1.31,531.7,M,-26.6,M,,*67
$GPGSA,A,3,07,27,04,16,30,09,08,,,,,,2.17,1.31,1.73*03
$GPGSV,3,1,11,03,14,180,29,04,62,112,33,07,50,293,32,08,26,129,33*70
$GPGSV,3,2,11,09,81,350,31,16,30,045,26,20,,,31,26,02,044,*4B
$GPGSV,3,3,11,27,27,088,33,30,24,274,32,48,47,197,*4C
$GPGLL,3606.62904,N,11504.33625,W,042835.00,A,A*79
$GPRMC,042836.00,A,3606.62903,N,11504.33547,W,2.186,82.35,110823,,,A*45
$GPVTG,82.35,T,,M,2.186,N,4.048,K,A*04
$GPGGA,042836.00,3606.62903,N,11504.33547,W,1,07,1.31,531.7,M,-26.6,M,,*64
$GPGSA,A,3,07,27,04,16,30,09,08,,,,,,2.17,1.31,1.73*03
$GPGSV,3,1,11,03,14,180,22,04,62,112,34,07,50,293,32,08,26,129,36*79
$GPGSV,3,2,11,09,81,350,31,16,30,045,27,20,,,25,26,02,044,*4F
$GPGSV,3,3,11,27,27,088,33,30,24,274,27,48,47,197,*48
$GPGLL,3606.62903,N,11504.33547,W,042836.00,A,A*7A
$GPRMC,042837.00,A,3606.62923,N,11504.33463,W,2.675,83.82,110823,,,A*47
$GPVTG,83.82,T,,M,2.675,N,4.954,K,A*06
$GPGGA,042837.00,3606.62923,N,11504.33463,W,1,07,1.31,531.7,M,-26.6,M,,*60
$GPGSA,A,3,07,27,04,16,30,09,08,,,,,,2.17,1.31,1.73*03
$GPGSV,3,1,11,03,14,180,23,04,62,112,35,07,50,293,32,08,26,129,39*76
$GPGSV,3,2,11,09,81,350,32,16,30,045,31,20,,,24,26,02,044,*4A
$GPGSV,3,3,11,27,27,088,28,30,24,274,32,48,47,197,*46
$GPGLL,3606.62923,N,11504.33463,W,042837.00,A,A*7E
$GPRMC,042838.00,A,3606.62932,N,11504.33364,W,2.933,84.28,110823,,,A*42
$GPVTG,84.28,T,,M,2.933,N,5.432,K,A*00
$GPGGA,042838.00,3606.62932,N,11504.33364,W,1,07,1.31,531.4,M,-26.6,M,,*6C
$GPGSA,A,3,07,27,04,16,30,09,08,,,,,,2.17,1.31,1.73*03
$GPGSV,3,1,11,03,14,180,23,04,62,112,33,07,50,293,31,08,26,129,34*7E
$GPGSV,3,2,11,09,81,350,32,16,30,045,30,20,,,24,26,02,044,*4B
$GPGSV,3,3,11,27,27,088,32,30,24,274,31,48,47,197,*4E
$GPGLL,3606.62932,N,11504.33364,W,042838.00,A,A*71
$GPRMC,042839.00,A,3606.62941,N,11504.33264,W,2.856,84.74,110823,,,A*4D
$GPVTG,84.74,T,,M,2.856,N,5.290,K,A*05
$GPGGA,042839.00,3606.62941,N,11504.33264,W,1,07,1.31,531.3,M,-26.6,M,,*6F
$GPGSA,A,3,07,27,04,16,30,09,08,,,,,,2.17,1.31,1.73*03
$GPGSV,3,1,11,03,14,180,20,04,62,112,33,07,50,293,31,08,26,129,33*7A
$GPGSV,3,2,11,09,81,350,31,16,30,045,30,20,,,23,26,02,044,*4F
$GPGSV,3,3,11,27,27,088,31,30,24,274,31,48,47,197,*4D
$GPGLL,3606.62941,N,11504.33264,W,042839.00,A,A*75
$GPRMC,042840.00,A,3606.62942,N,11504.33157,W,3.088,86.54,110823,,,A*49
$GPVTG,86.54,T,,M,3.088,N,5.718,K,A*0A
$GPGGA,042840.00,3606.62942,N,11504.33157,W,1,07,1.31,531.1,M,-26.6,M,,*63
$GPGSA,A,3,07,27,04,16,30,09,08,,,,,,2.17,1.31,1.73*03
$GPGSV,3,1,11,03,14,180,17,04,62,112,34,07,50,293,31,08,26,129,33*79
$GPGSV,3,2,11,09,81,350,31,16,30,045,29,20,,,23,26,02,044,*47
$GPGSV,3,3,11,27,27,088,26,30,24,274,31,48,47,197,*4B
$GPGLL,3606.62942,N,11504.33157,W,042840.00,A,A*7B
$GPRMC,042841.00,A,3606.62943,N,11504.33052,W,2.990,87.18,110823,,,A*45
$GPVTG,87.18,T,,M,2.990,N,5.537,K,A*0D
$GPGGA,042841.00,3606.62943,N,11504.33052,W,1,07,1.31,531.2,M,-26.6,M,,*64
$GPGSA,A,3,07,27,04,16,30,09,08,,,,,,2.17,1.31,1.73*03
$GPGSV,3,1,11,03,14,180,19,04,62,112,33,07,50,293,32,08,26,129,32*72
$GPGSV,3,2,11,09,81,350,31,16,30,045,30,20,,,23,26,02,044,*4F
$GPGSV,3,3,11,27,27,088,28,30,24,274,35,48,47,197,*41
$GPGLL,3606.62943,N,11504.33052,W,042841.00,A,A*7F
$GPRMC,042842.00,A,3606.62966,N,11504.32940,W,3.317,81.81,110823,,,A*48
$GPVTG,81.81,T,,M,3.317,N,6.143,K,A*0B
$GPGGA,042842.00,3606.62966,N,11504.32940,W,1,07,1.31,531.2,M,-26.6,M,,*6B
$GPGSA,A,3,07,27,04,16,30,09,08,,,,,,2.17,1.31,1.73*03
$GPGSV,3,1,11,03,14,180,18,04,62,112,35,07,50,293,33,08,26,129,26*71
$GPGSV,3,2,11,09,81,350,30,16,30,045,31,20,,,24,26,02,044,*48
$GPGSV,3,3,11,27,27,088,32,30,24,274,35,48,47,197,*4A
$GPGLL,3606.62966,N,11504.32940,W,042842.00,A,A*70
$GPRMC,042843.00,A,3606.62978,N,11504.32819,W,3.489,82.37,110823,,,A*45
$GPVTG,82.37,T,,M,3.489,N,6.462,K,A*03
$GPGGA,042843.00,3606.62978,N,11504.32819,W,1,07,1.31,531.2,M,-26.6,M,,*68
$GPGSA,A,3,07,27,04,16,30,09,08,,,,,,2.17,1.31,1.73*03
$GPGSV,3,1,11,03,14,180,18,04,62,112,35,07,50,293,33,08,26,129,32*74
$GPGSV,3,2,11,09,81,350,31,16,30,045,27,20,,,23,26,02,044,*49
$GPGSV,3,3,11,27,27,088,27,30,24,274,35,48,47,197,*4E
$GPGLL,3606.62978,N,11504.32819,W,042843.00,A,A*73
$GPRMC,042844.00,A,3606.62982,N,11504.32696,W,3.508,84.34,110823,,,A*43
$GPVTG,84.34,T,,M,3.508,N,6.498,K,A*0B
$GPGGA,042844.00,3606.62982,N,11504.32696,W,1,07,1.31,531.3,M,-26.6,M,,*62
$GPGSA,A,3,07,27,04,16,30,09,08,,,,,,2.17,1.31,1.73*03
$GPGSV,3,1,11,03,14,180,19,04,62,112,35,07,50,293,32,08,26,129,35*73
$GPGSV,3,2,11,09,81,350,31,16,30,045,28,20,,,24,26,02,044,*41
$GPGSV,3,3,11,27,27,088,28,30,24,274,33,48,47,197,*47
$GPGLL,3606.62982,N,11504.32696,W,042844.00,A,A*78
$GPRMC,042845.00,A,3606.62985,N,11504.32574,W,3.485,88.30,110823,,,A*46
$GPVTG,88.30,T,,M,3.485,N,6.454,K,A*07
$GPGGA,042845.00,3606.62985,N,11504.32574,W,1,07,1.31,531.1,M,-26.6,M,,*69
$GPGSA,A,3,07,27,04,16,30,09,08,,,,,,2.17,1.31,1.73*03
$GPGSV,3,1,11,03,14,180,19,04,62,112,34,07,50,293,33,08,27,128,34*72
$GPGSV,3,2,11,09,81,350,30,16,30,045,29,20,,,26,26,02,044,*43
$GPGSV,3,3,11,27,27,088,28,30,24,274,33,48,47,197,*47
$GPGLL,3606.62985,N,11504.32574,W,042845.00,A,A*71
$GPRMC,042846.00,A,3606.62975,N,11504.32460,W,3.473,91.16,110823,,,A*4B
$GPVTG,91.16,T,,M,3.473,N,6.433,K,A*03
$GPGGA,042846.00,3606.62975,N,11504.32460,W,1,07,1.31,531.3,M,-26.6,M,,*63
$GPGSA,A,3,07,27,04,16,30,09,08,,,,,,2.17,1.31,1.73*03
$GPGSV,3,1,11,03,14,180,19,04,62,112,34,07,50,293,34,08,27,128,38*79
$GPGSV,3,2,11,09,82,350,25,16,30,045,33,20,,,27,26,02,044,*4E
$GPGSV,3,3,11,27,27,088,29,30,24,274,35,48,47,197,*40
$GPGLL,3606.62975,N,11504.32460,W,042846.00,A,A*79
$GPRMC,042847.00,A,3606.62969,N,11504.32345,W,3.491,92.77,110823,,,A*4F
$GPVTG,92.77,T,,M,3.491,N,6.465,K,A*08
$GPGGA,042847.00,3606.62969,N,11504.32345,W,1,07,1.31,531.1,M,-26.6,M,,*6D
$GPGSA,A,3,07,27,04,16,30,09,08,,,,,,2.17,1.31,1.73*03
$GPGSV,3,1,11,03,14,180,19,04,62,112,30,07,50,293,30,08,27,128,36*77
$GPGSV,3,2,11,09,82,350,26,16,30,045,29,20,,,27,26,02,044,*46
$GPGSV,3,3,11,27,27,088,29,30,24,274,34,48,47,197,*41
$GPGLL,3606.62969,N,11504.32345,W,042847.00,A,A*75
$GPRMC,042848.00,A,3606.62969,N,11504.32221,W,3.556,91.10,110823,,,A*4B
$GPVTG,91.10,T,,M,3.556,N,6.585,K,A*0F
$GPGGA,042848.00,3606.62969,N,11504.32221,W,1,07,1.31,531.1,M,-26.6,M,,*61
$GPGSA,A,3,07,27,04,16,30,09,08,,,,,,2.17,1.31,1.73*03
$GPGSV,3,1,11,03,14,180,17,04,62,112,33,07,50,293,32,08,27,128,36*78
$GPGSV,3,2,11,09,82,350,30,16,30,045,30,20,,,25,26,02,044,*4B
$GPGSV,3,3,11,27,27,088,29,30,24,274,34,48,47,197,*41
$GPGLL,3606.62969,N,11504.32221,W,042848.00,A,A*79
$GPRMC,042849.00,A,3606.62975,N,11504.32091,W,3.808,90.68,110823,,,A*46
$GPVTG,90.68,T,,M,3.808,N,7.052,K,A*09
$GPGGA,042849.00,3606.62975,N,11504.32091,W,1,07,1.31,531.2,M,-26.6,M,,*67
$GPGSA,A,3,07,27,04,16,30,09,08,,,,,,2.17,1.31,1.73*03
$GPGSV,3,1,11,03,14,180,17,04,62,112,34,07,50,293,32,08,27,128,35*7C
$GPGSV,3,2,11,09,82,350,30,16,30,045,34,20,,,24,26,02,044,*4E
$GPGSV,3,3,11,27,27,088,29,30,24,274,34,48,47,197,*41
$GPGLL,3606.62975,N,11504.32091,W,042849.00,A,A*7C
$GPRMC,042850.00,A,3606.62967,N,11504.31972,W,3.441,91.31,110823,,,A*46
$GPVTG,91.31,T,,M,3.441,N,6.372,K,A*05
$GPGGA,042850.00,3606.62967,N,11504.31972,W,1,07,1.31,531.2,M,-26.6,M,,*6B
$GPGSA,A,3,07,27,04,16,30,09,08,,,,,,2.17,1.31,1.73*03
$GPGSV,3,1,11,03,14,180,19,04,62,112,33,07,50,293,32,08,27,128,36*76
$GPGSV,3,2,11,09,82,350,31,16,30,045,34,20,,,23,26,02,044,*48
$GPGSV,3,3,11,27,27,088,29,30,24,274,34,48,47,197,*41
$GPGLL,3606.62967,N,11504.31972,W,042850.00,A,A*70
$GPRMC,042851.00,A,3606.62954,N,11504.31858,W,3.647,94.62,110823,,,A*49
$GPVTG,94.62,T,,M,3.647,N,6.754,K,A*02
$GPGGA,042851.00,3606.62954,N,11504.31858,W,1,07,1.31,531.6,M,-26.6,M,,*67
$GPGSA,A,3,07,27,04,16,30,09,08,,,,,,2.17,1.31,1.73*03
$GPGSV,3,1,11,03,14,180,22,04,62,112,33,07,50,293,31,08,27,128,37*7C
$GPGSV,3,2,11,09,82,350,32,16,30,045,31,20,,,23,26,02,044,*4E
$GPGSV,3,3,11,27,27,088,29,30,24,274,34,48,47,197,*41
$GPGLL,3606.62954,N,11504.31858,W,042851.00,A,A*78
$GPRMC,042852.00,A,3606.62948,N,11504.31727,W,3.966,92.10,110823,,,A*4F
$GPVTG,92.10,T,,M,3.966,N,7.344,K,A*09
$GPGGA,042852.00,3606.62948,N,11504.31727,W,1,07,1.31,531.7,M,-26.6,M,,*6F
$GPGSA,A,3,07,27,04,16,30,09,08,,,,,,2.17,1.31,1.73*03
$GPGSV,3,1,11,03,14,180,21,04,62,112,33,07,50,293,32,08,27,128,33*78
$GPGSV,3,2,11,09,82,350,30,16,30,045,31,20,,,22,26,02,044,*4D
$GPGSV,3,3,11,27,27,088,32,30,24,274,33,48,47,197,*4C
$GPGLL,3606.62948,N,11504.31727,W,042852.00,A,A*71
$GPRMC,042853.00,A,3606.62939,N,11504.31605,W,3.672,92.37,110823,,,A*46
$GPVTG,92.37,T,,M,3.672,N,6.801,K,A*0D
$GPGGA,042853.00,3606.62939,N,11504.31605,W,1,07,1.31,531.9,M,-26.6,M,,*67
$GPGSA,A,3,07,27,04,16,30,09,08,,,,,,2.17,1.31,1.73*03
$GPGSV,3,1,11,03,14,180,19,04,62,112,33,07,50,293,35,08,27,128,31*76
$GPGSV,3,2,11,09,82,350,30,16,30,045,31,20,,,23,26,02,044,*4C
$GPGSV,3,3,11,27,27,088,31,30,24,274,29,48,47,197,*44
$GPGLL,3606.62939,N,11504.31605,W,042853.00,A,A*77
$GPRMC,042854.00,A,3606.62941,N,11504.31480,W,3.496,91.42,110823,,,A*48
$GPVTG,91.42,T,,M,3.496,N,6.475,K,A*0B
$GPGGA,042854.00,3606.62941,N,11504.31480,W,1,07,1.31,531.8,M,-26.6,M,,*61
$GPGSA,A,3,07,27,04,16,30,09,08,,,,,,2.17,1.31,1.73*03
$GPGSV,3,1,11,03,14,180,17,04,62,112,33,07,50,293,35,08,27,128,30*79
$GPGSV,3,2,11,09,82,350,30,16,30,045,31,20,,,23,26,02,044,*4C
$GPGSV,3,3,11,27,27,088,31,30,24,274,33,48,47,197,*4F
$GPGLL,3606.62941,N,11504.31480,W,042854.00,A,A*70
$GPRMC,042855.00,A,3606.62927,N,11504.31368,W,3.446,94.05,110823,,,A*43
$GPVTG,94.05,T,,M,3.446,N,6.381,K,A*0C
$GPGGA,042855.00,3606.62927,N,11504.31368,W,1,07,1.31,531.9,M,-26.6,M,,*60
$GPGSA,A,3,07,27,04,16,30,09,08,,,,,,2.18,1.31,1.73*0C
4*79
$GPGSV,3,2,11,09,82,350,30,16,30,045,31,20,,,23,26,02,044,*4C
$GPGSV,3,3,11,27,27,088,31,30,24,274,36,48,47,197,*4A
$GPGLL,3606.62927,N,11504.31368,W,042855.00,A,A*70
$GPRMC,042856.00,A,3606.62922,N,11504.31258,W,3.546,94.45,110823,,,A*42
$GPVTG,94.45,T,,M,3.546,N,6.566,K,A*06
$GPGGA,042856.00,3606.62922,N,11504.31258,W,1,07,1.31,531.6,M,-26.6,M,,*6B
