$GPTXT,01,01,02,u-blox ag - www.u-blox.com*50
$GPTXT,01,01,02,HW  UBX-G70xx   00070000 *77
$GPTXT,01,01,02,ROM CORE 1.00 (59842) Jun 27 2012 17:43:52*59
$GPTXT,01,01,02,PROTVER 14.00*1E
$GPTXT,01,01,02,ANTSUPERV=AC SD PDoS SR*20
$GPTXT,01,01,02,ANTSTATUS=OK*3B
$GPTXT,01,01,02,LLC FFFFFFFF-FFFFFFFD-FFFFFFFF-FFFFFFFF-FFFFFFF9*53
$GPRMC,212343.00,A,3606.62183,N,11504.30329,W,0.527,,060823,,,D*6A
$GPVTG,,T,,M,0.527,N,0.977,K,D*2F
$GPGGA,212343.00,3606.62183,N,11504.30329,W,2,07,1.10,543.2,M,-26.6,M,,0000*67
$GPGSA,A,3,23,21,46,27,08,18,32,,,,,,2.48,1.10,2.23*0A
$GPGSV,4,1,13,02,14,317,,08,31,284,33,10,62,021,09,18,24,134,23*7F
$GPGSV,4,2,13,21,23,316,15,22,51,216,32,23,36,068,20,24,18,050,*7D
$GPGSV,4,3,13,27,37,240,25,28,16,169,14,32,72,223,26,46,46,203,30*7B
$GPGSV,4,4,13,48,47,197,*4B
$GPGLL,3606.62183,N,11504.30329,W,212343.00,A,D*7C
$GPRMC,212344.00,A,3606.62192,N,11504.30309,W,0.173,,060823,,,D*6A
$GPVTG,,T,,M,0.173,N,0.321,K,D*23
$GPGGA,212344.00,3606.62192,N,11504.30309,W,2,08,0.98,543.7,M,-26.6,M,,0000*69
$GPGSA,A,3,23,21,10,46,27,08,18,32,,,,,2.07,0.98,1.82*09
$GPGSV,4,1,13,02,14,317,,08,31,284,33,10,62,021,18,18,24,134,23*7F
$GPGSV,4,2,13,21,23,316,16,22,51,216,32,23,36,068,20,24,18,050,*7E
$GPGSV,4,3,13,27,37,240,25,28,16,169,16,32,72,223,26,46,46,203,31*78
$GPGSV,4,4,13,48,47,197,*4B
$GPGLL,3606.62192,N,11504.30309,W,212344.00,A,D*79
$GPRMC,212345.00,A,3606.62197,N,11504.30305,W,0.037,,060823,,,D*63
$GPVTG,,T,,M,0.037,N,0.068,K,D*2C
$GPGGA,212345.00,3606.62197,N,11504.30305,W,2,08,0.98,544.2,M,-26.6,M,,0000*63
$GPGSA,A,3,23,21,10,46,27,08,18,32,,,,,2.07,0.98,1.82*09
$GPGSV,4,1,13,02,14,317,,08,31,284,33,10,62,021,26,18,24,134,22*73
$GPGSV,4,2,13,21,23,316,15,22,51,216,33,23,36,068,22,24,18,050,*7E
$GPGSV,4,3,13,27,37,240,25,28,16,169,16,32,72,223,26,46,46,203,32*7B
$GPGSV,4,4,13,48,47,197,*4B
$GPGLL,3606.62197,N,11504.30305,W,212345.00,A,D*71
$GPRMC,212346.00,A,3606.62204,N,11504.30301,W,0.071,,060823,,,D*6F
$GPVTG,,T,,M,0.071,N,0.131,K,D*23
$GPGGA,212346.00,3606.62204,N,11504.30301,W,2,07,1.16,544.3,M,-26.6,M,,0000*64
$GPGSA,A,3,23,10,46,27,08,18,32,,,,,,2.44,1.16,2.14*06
$GPGSV,4,1,13,02,14,317,18,08,31,284,33,10,62,021,27,18,24,134,23*7A
$GPGSV,4,2,13,21,23,316,13,22,51,216,33,23,36,068,23,24,18,050,*79
$GPGSV,4,3,13,27,37,240,26,28,16,169,16,32,72,223,25,46,46,203,31*78
$GPGSV,4,4,13,48,47,197,*4B
$GPGLL,3606.62204,N,11504.30301,W,212346.00,A,D*7F
$GPRMC,212347.00,A,3606.62207,N,11504.30301,W,0.038,,060823,,,D*60
$GPVTG,,T,,M,0.038,N,0.070,K,D*2A
$GPGGA,212347.00,3606.62207,N,11504.30301,W,2,07,1.16,544.4,M,-26.6,M,,0000*61
$GPGSA,A,3,23,10,46,27,08,18,32,,,,,,2.44,1.16,2.14*06
$GPGSV,4,1,13,02,14,317,17,08,31,284,33,10,62,021,28,18,24,134,25*7C
$GPGSV,4,2,13,21,23,316,10,22,51,216,33,23,36,068,24,24,18,050,*7D
$GPGSV,4,3,13,27,37,240,27,28,16,169,16,32,72,223,25,46,46,203,31*79
$GPGSV,4,4,13,48,47,197,*4B
$GPGLL,3606.62207,N,11504.30301,W,212347.00,A,D*7D
$GPRMC,212348.00,A,3606.62207,N,11504.30306,W,0.072,,060823,,,D*66
$GPVTG,,T,,M,0.072,N,0.134,K,D*25
$GPGGA,212348.00,3606.62207,N,11504.30306,W,2,07,1.16,544.4,M,-26.6,M,,0000*69
$GPGSA,A,3,23,10,46,27,08,18,32,,,,,,2.44,1.16,2.14*06
$GPGSV,4,1,13,02,14,317,17,08,31,284,33,10,62,021,28,18,24,134,25*7C
$GPGSV,4,2,13,21,23,316,09,22,51,216,33,23,36,068,23,24,18,050,*72
$GPGSV,4,3,13,27,37,240,27,28,16,169,15,32,72,223,25,46,46,203,31*7A
$GPGSV,4,4,13,48,47,197,*4B
$GPGLL,3606.62207,N,11504.30306,W,212348.00,A,D*75
$GPRMC,212349.00,A,3606.62201,N,11504.30316,W,0.078,,060823,,,D*6A
$GPVTG,,T,,M,0.078,N,0.144,K,D*28
$GPGGA,212349.00,3606.62201,N,11504.30316,W,2,07,1.16,544.1,M,-26.6,M,,0000*6A
$GPGSA,A,3,23,10,46,27,08,18,32,,,,,,2.44,1.16,2.14*06
$GPGSV,4,1,13,02,14,317,16,08,31,284,33,10,62,021,29,18,24,134,24*7D
$GPGSV,4,2,13,21,23,316,08,22,51,216,32,23,36,068,22,24,18,050,*73
$GPGSV,4,3,13,27,37,240,26,28,16,169,16,32,72,223,24,46,46,203,31*79
$GPGSV,4,4,13,48,47,197,*4B
$GPGLL,3606.62201,N,11504.30316,W,212349.00,A,D*73
$GPRMC,212350.00,A,3606.62196,N,11504.30321,W,0.042,,060823,,,D*62
$GPVTG,,T,,M,0.042,N,0.077,K,D*20
$GPGGA,212350.00,3606.62196,N,11504.30321,W,2,07,1.16,543.7,M,-26.6,M,,0000*6A
$GPGSA,A,3,23,10,46,27,08,18,32,,,,,,2.44,1.16,2.14*06
$GPGSV,4,1,13,02,14,317,14,08,31,284,33,10,62,021,28,18,24,134,24*7E
$GPGSV,4,2,13,21,23,316,,22,51,216,32,23,36,068,22,24,18,050,*7B
$GPGSV,4,3,13,27,37,240,26,28,16,169,18,32,72,223,24,46,46,203,31*77
$GPGSV,4,4,13,48,47,197,*4B
$GPGLL,3606.62196,N,11504.30321,W,212350.00,A,D*72
$GPRMC,212351.00,A,3606.62199,N,11504.30319,W,0.049,,060823,,,D*6C
$GPVTG,,T,,M,0.049,N,0.091,K,D*23
$GPGGA,212351.00,3606.62199,N,11504.30319,W,2,07,1.16,543.6,M,-26.6,M,,0000*6E
$GPGSA,A,3,23,10,46,27,08,18,32,,,,,,2.44,1.16,2.14*06
$GPGSV,4,3,13,27,37,240,25,28,16,169,18,32,72,223,25,46,46,203,32*76
$GPGSV,4,4,13,48,47,197,*4B
$GPGLL,3606.62199,N,11504.30319,W,212351.00,A,D*77
$GPRMC,212352.00,A,3606.62207,N,11504.30316,W,0.010,,060823,,,D*68
$GPVTG,,T,,M,0.010,N,0.018,K,D*2E
$GPGGA,212352.00,3606.62207,N,11504.30316,W,2,07,1.16,543.7,M,-26.6,M,,0000*67
$GPGSA,A,3,23,10,46,27,08,18,32,,,,,,2.44,1.16,2.14*06
$GPGSV,4,1,13,02,14,317,14,08,31,284,32,10,62,021,29,18,24,134,22*78
$GPGSV,4,2,13,21,23,316,15,22,51,216,33,23,36,068,22,24,18,050,*7E
$GPGSV,4,3,13,27,37,240,24,28,16,169,18,32,72,223,25,46,46,203,32*77
$GPGSV,4,4,13,48,47,197,*4B
$GPGLL,3606.62207,N,11504.30316,W,212352.00,A,D*7F
$GPRMC,212353.00,A,3606.62214,N,11504.30313,W,0.073,,060823,,,D*6B
$GPVTG,,T,,M,0.073,N,0.135,K,D*25
$GPGGA,212353.00,3606.62214,N,11504.30313,W,2,07,1.16,543.7,M,-26.6,M,,0000*61
$GPGSA,A,3,23,10,46,27,08,18,32,,,,,,2.44,1.16,2.14*06
$GPGSV,4,1,13,02,14,317,15,08,31,284,33,10,62,021,29,18,24,134,22*78
$GPGSV,4,2,13,21,23,316,13,22,51,216,34,23,36,068,20,24,18,050,*7D
$GPGSV,4,3,13,27,37,240,25,28,16,169,19,32,72,223,24,46,46,203,31*75
$GPGSV,4,4,13,48,47,197,*4B
$GPGLL,3606.62214,N,11504.30313,W,212353.00,A,D*79
$GPRMC,212354.00,A,3606.62213,N,11504.30315,W,0.097,,060823,,,D*67
$GPVTG,,T,,M,0.097,N,0.179,K,D*27
$GPGGA,212354.00,3606.62213,N,11504.30315,W,2,07,1.16,543.3,M,-26.6,M,,0000*63
$GPGSA,A,3,23,10,46,27,08,18,32,,,,,,2.44,1.16,2.14*06
$GPGSV,4,1,13,02,14,317,14,08,31,284,33,10,62,021,29,18,24,134,22*79
$GPGSV,4,2,13,21,23,316,11,22,51,216,34,23,36,068,18,24,18,050,*74
$GPGSV,4,3,13,27,37,240,24,28,16,169,19,32,72,223,23,46,46,203,30*72
$GPGSV,4,4,13,48,47,197,*4B
$GPGLL,3606.62213,N,11504.30315,W,212354.00,A,D*7F
$GPRMC,212355.00,A,3606.62211,N,11504.30318,W,0.092,,060823,,,D*6C
$GPVTG,,T,,M,0.092,N,0.170,K,D*2B
$GPGGA,212355.00,3606.62211,N,11504.30318,W,2,08,0.98,543.4,M,-26.6,M,,0000*62
$GPGSA,A,3,23,21,10,46,27,08,18,32,,,,,2.07,0.98,1.82*09
$GPGSV,4,1,13,02,14,317,13,08,31,284,33,10,62,021,29,18,24,134,22*7E
$GPGSV,4,2,13,21,23,316,15,22,51,216,33,23,36,068,17,24,18,050,*78
$GPGSV,4,3,13,27,37,240,25,28,16,169,19,32,72,223,23,46,46,203,30*73
$GPGSV,4,4,13,48,47,197,*4B
$GPGLL,3606.62211,N,11504.30318,W,212355.00,A,D*71
$GPRMC,212356.00,A,3606.62205,N,11504.30317,W,0.181,,060823,,,D*66
$GPVTG,,T,,M,0.181,N,0.336,K,D*28
$GPGGA,212356.00,3606.62205,N,11504.30317,W,2,08,0.98,543.5,M,-26.6,M,,0000*6A
$GPGSA,A,3,23,21,10,46,27,08,18,32,,,,,2.07,0.98,1.82*09
$GPGSV,4,1,13,02,14,317,13,08,31,284,33,10,62,021,29,18,24,134,22*7E
$GPGSV,4,2,13,21,23,316,15,22,51,216,33,23,36,068,16,24,18,050,*79
$GPGSV,4,3,13,27,37,240,23,28,16,169,20,32,72,223,21,46,46,203,31*7C
$GPGSV,4,4,13,48,47,197,*4B
$GPGLL,3606.62205,N,11504.30317,W,212356.00,A,D*78
$GPRMC,212357.00,A,3606.62199,N,11504.30316,W,0.153,,060823,,,D*6F
$GPVTG,,T,,M,0.153,N,0.284,K,D*2F
$GPGGA,212357.00,3606.62199,N,11504.30316,W,2,08,0.98,543.3,M,-26.6,M,,0000*6A
$GPGSA,A,3,23,21,10,46,27,08,18,32,,,,,2.07,0.98,1.82*09
$GPGSV,4,1,13,02,14,317,14,08,31,284,33,10,62,021,30,18,24,134,22*71
$GPGSV,4,2,13,21,23,316,16,22,51,216,33,23,36,068,15,24,18,050,*79
$GPGSV,4,3,13,27,37,240,23,28,16,169,20,32,72,223,21,46,46,203,31*7C
$GPGSV,4,4,13,48,47,197,*4B
$GPGLL,3606.62199,N,11504.30316,W,212357.00,A,D*7E
$GPRMC,212358.00,A,3606.62195,N,11504.30322,W,0.189,,060823,,,D*6C
$GPVTG,,T,,M,0.189,N,0.349,K,D*28
$GPGGA,212358.00,3606.62195,N,11504.30322,W,2,08,0.98,543.2,M,-26.6,M,,0000*6F
$GPGSA,A,3,23,21,10,46,27,08,18,32,,,,,2.07,0.98,1.82*09
$GPGSV,4,1,13,02,14,317,14,08,31,284,32,10,62,021,30,18,24,134,21*73
$GPGSV,4,2,13,21,23,316,16,22,51,216,33,23,36,068,16,24,18,050,*7A
$GPGSV,4,3,13,27,37,240,23,28,16,169,19,32,72,223,21,46,46,203,31*76
$GPGSV,4,4,13,48,47,197,*4B
$GPGLL,3606.62195,N,11504.30322,W,212358.00,A,D*7A
$GPRMC,212359.00,A,3606.62199,N,11504.30317,W,0.188,,060823,,,D*66
$GPVTG,,T,,M,0.188,N,0.348,K,D*28
$GPGGA,212359.00,3606.62199,N,11504.30317,W,2,08,0.98,543.1,M,-26.6,M,,0000*67
$GPGSA,A,3,23,21,10,46,27,08,18,32,,,,,2.06,0.98,1.82*08
$GPGSV,4,1,13,02,14,317,14,08,31,284,33,10,62,021,30,18,24,134,21*72
$GPGSV,4,2,13,21,23,316,16,22,51,216,33,23,36,068,17,24,18,050,*7B
$GPGSV,4,3,13,27,37,240,22,28,16,169,19,32,72,223,22,46,46,203,31*74
$GPGSV,4,4,13,48,47,197,*4B
$GPGLL,3606.62199,N,11504.30317,W,212359.00,A,D*71
$GPRMC,212400.00,A,3606.62198,N,11504.30305,W,0.043,,060823,,,D*69
$GPVTG,,T,,M,0.043,N,0.080,K,D*29
$GPGGA,212400.00,3606.62198,N,11504.30305,W,2,08,0.98,542.6,M,-26.6,M,,0000*68
$GPGSA,A,3,23,21,10,46,27,08,18,32,,,,,2.06,0.98,1.82*08
$GPGSV,4,1,13,02,14,317,15,08,31,284,32,10,62,021,29,18,24,134,21*7A
$GPGSV,4,2,13,21,23,316,15,22,51,216,34,23,36,068,18,24,18,050,*70
$GPGSV,4,3,13,27,37,240,22,28,16,169,20,32,72,223,22,46,46,203,31*7E
$GPGSV,4,4,13,48,47,197,*4B
$GPGLL,3606.62198,N,11504.30305,W,212400.00,A,D*78
$GPRMC,212401.00,A,3606.62194,N,11504.30313,W,0.174,,060823,,,D*66
$GPVTG,,T,,M,0.174,N,0.322,K,D*27
$GPGGA,212401.00,3606.62194,N,11504.30313,W,2,08,0.98,542.5,M,-26.6,M,,0000*61
$GPGSA,A,3,23,21,10,46,27,08,18,32,,,,,2.06,0.98,1.82*08
$GPGSV,4,1,13,02,14,317,16,08,31,284,33,10,62,021,29,18,24,134,22*7B
$GPGSV,4,2,13,21,23,316,14,22,51,216,33,23,36,068,18,24,18,050,*76
$GPGSV,4,3,13,27,37,240,23,28,16,169,19,32,72,223,22,46,46,203,32*76
$GPGSV,4,4,13,48,47,197,*4B
$GPGLL,3606.62194,N,11504.30313,W,212401.00,A,D*72
$GPRMC,212402.00,A,3606.62189,N,11504.30324,W,0.155,,060823,,,D*6E
$GPVTG,,T,,M,0.155,N,0.287,K,D*2A
$GPGGA,212402.00,3606.62189,N,11504.30324,W,2,08,0.98,542.7,M,-26.6,M,,0000*68
$GPGSA,A,3,23,21,10,46,27,08,18,32,,,,,2.06,0.98,1.82*08
$GPGSV,4,1,13,02,14,317,16,08,31,284,34,10,62,021,27,18,24,134,22*72
$GPGSV,4,2,13,21,23,316,13,22,51,216,33,23,36,068,16,24,18,050,*7F
$GPGSV,4,3,13,27,37,240,24,28,16,169,17,32,72,223,23,46,46,203,32*7E
$GPGSV,4,4,13,48,47,197,*4B
$GPGLL,3606.62189,N,11504.30324,W,212402.00,A,D*79
$GPRMC,212403.00,A,3606.62187,N,11504.30324,W,0.111,,060823,,,D*61
$GPVTG,,T,,M,0.111,N,0.206,K,D*23
$GPGGA,212403.00,3606.62187,N,11504.30324,W,2,08,0.98,542.5,M,-26.6,M,,0000*65
$GPGSA,A,3,23,21,10,46,27,08,18,32,,,,,2.06,0.98,1.82*08
$GPGSV,4,1,13,02,14,317,14,08,31,284,33,10,62,021,27,18,24,134,22*77
$GPGSV,4,2,13,21,23,316,12,22,51,216,33,23,36,068,15,24,18,050,*7D
$GPGSV,4,3,13,27,37,240,24,28,16,169,16,32,72,223,25,46,46,203,31*7A
$GPGSV,4,4,13,48,47,197,*4B
$GPGLL,3606.62187,N,11504.30324,W,212403.00,A,D*76
$GPRMC,212404.00,A,3606.62185,N,11504.30316,W,0.064,,060823,,,D*66
$GPVTG,,T,,M,0.064,N,0.119,K,D*2D
$GPGGA,212404.00,3606.62185,N,11504.30316,W,2,08,0.98,542.1,M,-26.6,M,,0000*65
$GPGSA,A,3,23,21,10,46,27,08,18,32,,,,,2.06,0.98,1.82*08
