02,2.30,1.96*08
$GPGSV,3,1,11,03,15,181,22,04,63,109,33,07,49,291,39,08,25,130,34*7D
$GPGSV,3,2,11,09,80,346,31,16,,,24,20,,,27,26,03,044,*7B
$GPGSV,3,3,11,27,27,090,35,30,23,273,26,48,47,197,*46
$GPGLL,3606.62970,N,11504.33867,W,042457.00,A,A*7A
$GPRMC,042458.00,A,3606.62997,N,11504.33933,W,2.419,238.45,110823,,,A*74
$GPVTG,238.45,T,,M,2.419,N,4.480,K,A*33
$GPGGA,042458.00,3606.62997,N,11504.33933,W,1,06,2.30,531.3,M,-26.6,M,,*65
$GPGSA,A,3,07,27,04,30,09,08,,,,,,,3.02,2.30,1.96*08
$GPGSV,3,1,11,03,15,181,21,04,63,109,32,07,49,291,39,08,25,130,30*7B
$GPGSV,3,2,11,09,80,346,26,16,,,25,20,,,27,26,03,044,*7C
$GPGSV,3,3,11,27,27,090,34,30,23,273,26,48,47,197,*47
$GPGLL,3606.62997,N,11504.33933,W,042458.00,A,A*7C
$GPRMC,042459.00,A,3606.63005,N,11504.34008,W,2.607,,110823,,,A*6B
$GPVTG,,T,,M,2.607,N,4.827,K,A*29
$GPGGA,042459.00,3606.63005,N,11504.34008,W,1,06,2.30,530.7,M,-26.6,M,,*64
$GPGSA,A,3,07,27,04,30,09,08,,,,,,,3.02,2.30,1.96*08
$GPGSV,3,1,11,03,15,181,23,04,63,109,34,07,49,291,40,08,25,130,29*79
$GPGSV,3,2,11,09,80,346,31,16,,,25,20,,,27,26,03,044,*7A
$GPGSV,3,3,11,27,27,090,37,30,23,273,34,48,47,197,*47
$GPGLL,3606.63005,N,11504.34008,W,042459.00,A,A*78
$GPRMC,042500.00,A,3606.62983,N,11504.34103,W,2.669,,110823,,,A*62
$GPVTG,,T,,M,2.669,N,4.943,K,A*22
$GPGGA,042500.00,3606.62983,N,11504.34103,W,1,06,2.30,530.7,M,-26.6,M,,*65
$GPGSA,A,3,07,27,04,30,09,08,,,,,,,3.02,2.30,1.96*08
$GPGSV,3,1,11,03,15,181,26,04,63,109,32,07,49,291,39,08,25,130,30*7C
$GPGSV,3,2,11,09,80,346,30,16,,,26,20,,,25,26,03,044,*7A
$GPGSV,3,3,11,27,27,090,29,30,23,273,23,48,47,197,*4E
$GPGLL,3606.62983,N,11504.34103,W,042500.00,A,A*79
$GPRMC,042501.00,A,3606.62983,N,11504.34193,W,2.504,,110823,,,A*62
$GPVTG,,T,,M,2.504,N,4.637,K,A*26
$GPGGA,042501.00,3606.62983,N,11504.34193,W,1,06,2.30,530.3,M,-26.6,M,,*69
$GPGSA,A,3,07,27,04,30,09,08,,,,,,,3.02,2.30,1.96*08
$GPGSV,3,1,11,03,15,180,32,04,63,109,30,07,49,291,34,08,25,130,32*75
$GPGSV,3,2,11,09,80,346,37,16,,,27,20,,,23,26,03,044,*7A
$GPGSV,3,3,11,27,27,090,21,30,23,273,25,48,47,197,*40
$GPGLL,3606.62983,N,11504.34193,W,042501.00,A,A*71
$GPRMC,042502.00,A,3606.62983,N,11504.34278,W,2.461,,110823,,,A*65
$GPVTG,,T,,M,2.461,N,4.557,K,A*21
$GPGGA,042502.00,3606.62983,N,11504.34278,W,1,06,2.30,530.2,M,-26.6,M,,*6D
$GPGSA,A,3,07,27,04,30,09,08,,,,,,,3.02,2.30,1.96*08
$GPGSV,3,1,11,03,15,180,26,04,63,110,29,07,49,291,31,08,25,130,20*76
$GPGSV,3,2,11,09,80,346,35,16,,,26,20,,,21,26,03,044,*7B
$GPGSV,3,3,11,27,27,090,21,30,23,273,24,48,47,197,*41
$GPGLL,3606.62983,N,11504.34278,W,042502.00,A,A*74
$GPRMC,042503.00,A,3606.62969,N,11504.34368,W,2.667,,110823,,,A*64
$GPVTG,,T,,M,2.667,N,4.940,K,A*2F
$GPGGA,042503.00,3606.62969,N,11504.34368,W,1,06,2.30,530.0,M,-26.6,M,,*6A
$GPGSA,A,3,07,27,04,30,09,08,,,,,,,3.02,2.30,1.96*08
$GPGSV,3,1,11,03,15,180,32,04,63,110,29,07,49,291,35,08,25,130,24*73
$GPGSV,3,2,11,09,80,346,36,16,,,24,20,,,21,26,03,044,*7A
$GPGSV,3,3,11,27,27,090,22,30,23,273,30,48,47,197,*47
$GPGLL,3606.62969,N,11504.34368,W,042503.00,A,A*71
$GPRMC,042504.00,A,3606.62958,N,11504.34465,W,2.764,,110823,,,A*69
$GPVTG,,T,,M,2.764,N,5.119,K,A*28
$GPGGA,042504.00,3606.62958,N,11504.34465,W,1,06,2.30,530.0,M,-26.6,M,,*65
$GPGSA,A,3,07,27,04,30,09,08,,,,,,,3.02,2.30,1.96*08
$GPGSV,3,1,11,03,15,180,31,04,63,110,29,07,49,291,35,08,25,130,31*74
$GPGSV,3,2,11,09,80,346,35,16,,,24,20,,,21,26,03,044,*79
$GPGSV,3,3,11,27,27,090,25,30,23,273,34,48,47,197,*44
$GPGLL,3606.62958,N,11504.34465,W,042504.00,A,A*7E
$GPRMC,042505.00,A,3606.62975,N,11504.34547,W,2.550,,110823,,,A*63
$GPVTG,,T,,M,2.550,N,4.722,K,A*22
$GPGGA,042505.00,3606.62975,N,11504.34547,W,1,06,2.30,530.1,M,-26.6,M,,*6B
$GPGSA,A,3,07,27,04,30,09,08,,,,,,,3.02,2.30,1.95*0B
$GPGSV,3,1,11,03,15,180,33,04,63,110,30,07,49,291,27,08,25,130,31*7D
$GPGSV,3,2,11,09,80,346,38,16,,,25,20,,,20,26,03,044,*74
$GPGSV,3,3,11,27,27,090,25,30,23,273,31,48,47,197,*41
$GPGLL,3606.62975,N,11504.34547,W,042505.00,A,A*71
$GPRMC,042506.00,A,3606.62964,N,11504.34635,W,2.403,,110823,,,A*61
$GPVTG,,T,,M,2.403,N,4.450,K,A*23
$GPGGA,042506.00,3606.62964,N,11504.34635,W,1,06,2.30,530.3,M,-26.6,M,,*6C
$GPGSA,A,3,07,27,04,30,09,08,,,,,,,3.02,2.30,1.95*0B
$GPGSV,3,1,11,03,15,180,34,04,63,110,33,07,49,291,32,08,25,130,27*7A
$GPGSV,3,2,11,09,80,346,37,16,,,23,20,,,20,26,03,044,*7D
$GPGSV,3,3,11,27,27,090,23,30,23,273,35,48,47,197,*43
$GPGLL,3606.62964,N,11504.34635,W,042506.00,A,A*74
$GPRMC,042507.00,A,3606.62983,N,11504.34722,W,2.605,,110823,,,A*6A
$GPVTG,,T,,M,2.605,N,4.824,K,A*28
$GPGGA,042507.00,3606.62983,N,11504.34722,W,1,06,2.30,530.5,M,-26.6,M,,*65
$GPGSA,A,3,07,27,04,30,09,08,,,,,,,3.02,2.30,1.95*0B
$GPGSV,3,1,11,03,15,180,31,04,63,110,33,07,49,291,35,08,25,130,35*7B
$GPGSV,3,2,11,09,80,346,37,16,,,23,20,,,18,26,03,044,*76
$GPGSV,3,3,11,27,27,090,22,30,23,273,32,48,47,197,*45
$GPGLL,3606.62983,N,11504.34722,W,042507.00,A,A*7B
$GPRMC,042508.00,A,3606.63002,N,11504.34812,W,2.631,,110823,,,A*6F
$GPVTG,,T,,M,2.631,N,4.872,K,A*2C
$GPGGA,042508.00,3606.63002,N,11504.34812,W,1,06,2.30,530.4,M,-26.6,M,,*66
$GPGSA,A,3,07,27,04,30,09,08,,,,,,,3.02,2.30,1.95*0B
$GPGSV,3,1,11,03,15,180,30,04,63,110,29,07,49,291,35,08,25,130,35*71
$GPGSV,3,2,11,09,80,346,32,16,,,22,20,,,18,26,03,044,*72
$GPGSV,3,3,11,27,27,090,22,30,23,273,31,48,47,197,*46
$GPGLL,3606.63002,N,11504.34812,W,042508.00,A,A*79
$GPRMC,042509.00,A,3606.63007,N,11504.34897,W,2.507,,110823,,,A*60
$GPVTG,,T,,M,2.507,N,4.643,K,A*26
$GPGGA,042509.00,3606.63007,N,11504.34897,W,1,06,2.30,530.5,M,-26.6,M,,*6E
$GPGSA,A,3,07,27,04,30,09,08,,,,,,,3.02,2.30,1.95*0B
$GPGSV,3,1,11,03,15,180,26,04,63,110,28,07,49,291,31,08,25,130,26*71
$GPGSV,3,2,11,09,80,346,34,16,,,23,20,,,18,26,03,044,*75
$GPGSV,3,3,11,27,27,090,23,30,23,273,31,48,47,197,*47
$GPGLL,3606.63007,N,11504.34897,W,042509.00,A,A*70
$GPRMC,042510.00,A,3606.63032,N,11504.34982,W,2.668,,110823,,,A*61
$GPVTG,,T,,M,2.668,N,4.941,K,A*21
$GPGGA,042510.00,3606.63032,N,11504.34982,W,1,06,2.30,530.5,M,-26.6,M,,*65
$GPGSA,A,3,07,27,04,30,09,08,,,,,,,3.02,2.30,1.95*0B
$GPGSV,3,1,11,03,15,180,24,04,63,110,22,07,49,291,34,08,25,130,26*7C
$GPGSV,3,2,11,09,80,346,32,16,,,24,20,,,19,26,03,044,*75
$GPGSV,3,3,11,27,27,090,22,30,23,273,25,48,47,197,*43
$GPGLL,3606.63032,N,11504.34982,W,042510.00,A,A*7B
$GPRMC,042511.00,A,3606.63132,N,11504.35018,W,2.131,,110823,,,A*61
$GPVTG,,T,,M,2.131,N,3.947,K,A*2B
$GPGGA,042511.00,3606.63132,N,11504.35018,W,1,06,2.30,529.2,M,-26.6,M,,*61
$GPGSA,A,3,07,27,04,30,09,08,,,,,,,3.02,2.30,1.95*0B
$GPGSV,3,1,11,03,15,180,22,04,63,110,24,07,49,291,33,08,25,130,31*7D
$GPGSV,3,2,11,09,80,346,35,16,,,23,20,,,20,26,03,044,*7F
$GPGSV,3,3,11,27,27,090,20,30,23,273,25,48,47,197,*41
$GPGLL,3606.63132,N,11504.35018,W,042511.00,A,A*70
$GPRMC,042512.00,A,3606.63106,N,11504.35109,W,2.535,,110823,,,A*64
$GPVTG,,T,,M,2.535,N,4.696,K,A*2F
$GPGGA,042512.00,3606.63106,N,11504.35109,W,1,06,2.30,529.3,M,-26.6,M,,*65
$GPGSA,A,3,07,27,04,30,09,08,,,,,,,3.02,2.30,1.95*0B
$GPGSV,3,1,11,03,15,180,21,04,63,110,24,07,49,291,31,08,25,130,24*78
$GPGSV,3,2,11,09,80,346,33,16,,,30,20,,,22,26,03,044,*79
$GPGSV,3,3,11,27,27,090,20,30,23,273,23,48,47,197,*47
$GPGLL,3606.63106,N,11504.35109,W,042512.00,A,A*75
$GPRMC,042513.00,A,3606.63132,N,11504.35201,W,2.768,,110823,,,A*63
$GPVTG,,T,,M,2.768,N,5.126,K,A*28
$GPGGA,042513.00,3606.63132,N,11504.35201,W,1,06,2.30,529.3,M,-26.6,M,,*68
$GPGSA,A,3,07,27,04,30,09,08,,,,,,,3.02,2.30,1.95*0B
$GPGSV,3,1,11,03,15,180,20,04,63,110,24,07,49,291,31,08,25,130,23*7E
$GPGSV,3,2,11,09,80,346,33,16,,,30,20,,,26,26,03,044,*7D
$GPGSV,3,3,11,27,27,090,20,30,23,273,22,48,47,197,*46
$GPGLL,3606.63132,N,11504.35201,W,042513.00,A,A*78
$GPRMC,042514.00,A,3606.63132,N,11504.35286,W,2.398,,110823,,,A*60
$GPVTG,,T,,M,2.398,N,4.441,K,A*26
$GPGGA,042514.00,3606.63132,N,11504.35286,W,1,06,2.30,528.9,M,-26.6,M,,*6B
$GPGSA,A,3,07,27,04,30,09,08,,,,,,,3.02,2.30,1.95*0B
$GPGSV,3,1,11,03,15,180,30,04,63,110,25,07,49,291,30,08,25,130,21*7D
$GPGSV,3,2,11,09,80,346,36,16,,,25,20,,,26,26,03,044,*7C
$GPGSV,3,3,11,27,27,090,19,30,23,273,26,48,47,197,*48
$GPGLL,3606.63132,N,11504.35286,W,042514.00,A,A*70
$GPRMC,042515.00,A,3606.63008,N,11504.35429,W,3.754,,110823,,,A*6F
$GPVTG,,T,,M,3.754,N,6.952,K,A*2E
$GPGGA,042515.00,3606.63008,N,11504.35429,W,1,06,2.30,529.5,M,-26.6,M,,*6C
$GPGSA,A,3,07,27,04,30,09,08,,,,,,,3.02,2.30,1.95*0B
$GPGSV,3,1,11,03,15,180,28,04,63,110,26,07,49,291,33,08,25,130,21*74
$GPGSV,3,2,11,09,80,346,35,16,,,31,20,,,26,26,03,044,*7A
$GPGSV,3,3,11,27,27,090,20,30,23,273,26,48,47,197,*42
$GPGLL,3606.63008,N,11504.35429,W,042515.00,A,A*7A
$GPRMC,042516.00,A,3606.63044,N,11504.35533,W,2.933,,110823,,,A*60
$GPVTG,,T,,M,2.933,N,5.433,K,A*29
$GPGGA,042516.00,3606.63044,N,11504.35533,W,1,06,2.30,529.5,M,-26.6,M,,*6D
$GPGSA,A,3,07,27,04,30,09,08,,,,,,,3.02,2.30,1.95*0B
$GPGSV,3,1,11,03,15,180,28,04,63,110,27,07,49,291,33,08,25,130,21*75
$GPGSV,3,2,11,09,80,346,34,16,,,34,20,,,27,26,03,044,*7F
$GPGSV,3,3,11,27,27,090,21,30,23,273,25,48,47,197,*40
$GPGLL,3606.63044,N,11504.35533,W,042516.00,A,A*7B
$GPRMC,042517.00,A,3606.63036,N,11504.35623,W,2.468,,110823,,,A*65
$GPVTG,,T,,M,2.468,N,4.571,K,A*2C
$GPGGA,042517.00,3606.63036,N,11504.35623,W,1,06,2.30,528.9,M,-26.6,M,,*66
$GPGSA,A,3,07,27,04,30,09,08,,,,,,,3.02,2.30,1.95*0B
$GPGSV,3,1,11,03,15,180,25,04,63,110,29,07,49,291,32,08,25,130,23*75
$GPGSV,3,2,11,09,80,346,35,16,,,25,20,,,15,26,03,044,*7F
$GPGSV,3,3,11,27,27,090,21,30,23,273,26,48,47,197,*43
$GPGLL,3606.63036,N,11504.35623,W,042517.00,A,A*7D
$GPRMC,042518.00,A,3606.63067,N,11504.35714,W,2.897,,110823,,,A*67
$GPVTG,,T,,M,2.897,N,5.366,K,A*21
$GPGGA,042518.00,3606.63067,N,11504.35714,W,1,06,2.30,527.9,M,-26.6,M,,*67
$GPGSA,A,3,07,27,04,30,09,08,,,,,,,3.02,2.30,1.95*0B
$GPGSV,3,1,11,03,15,180,23,04,63,110,29,07,49,291,35,08,25,130,30*76
$GPGSV,3,2,11,09,80,346,37,16,,,24,20,,,22,26,03,044,*78
$GPGSV,3,3,11,27,27,090,22,30,23,273,31,48,47,197,*46
$GPGLL,3606.63067,N,11504.35714,W,042518.00,A,A*73
$GPRMC,042519.00,A,3606.63055,N,11504.35808,W,2.523,,110823,,,A*67
$GPVTG,,T,,M,2.523,N,4.674,K,A*24
$GPGGA,042519.00,3606.63055,N,11504.35808,W,1,06,2.30,527.4,M,-26.6,M,,*68
$GPGSA,A,3,07,27,04,30,09,08,,,,,,,3.01,2.30,1.95*08
$GPGSV,3,1,11,03,15,180,24,04,63,110,27,07,49,291,37,08,25,130,30*7D
$GPGSV,3,2,11,09,80,346,35,16,,,24,20,,,29,26,03,044,*71
$GPGSV,3,3,11,27,27,090,22,30,23,273,34,48,47,197,*43
$GPGLL,3606.63055,N,11504.35808,W,042519.00,A,A*71
$GPRMC,042520.00,A,3606.63023,N,11504.35938,W,2.851,,110823,,,A*66
$GPVTG,,T,,M,2.851,N,5.281,K,A*23
$GPGGA,042520.00,3606.63023,N,11504.35938,W,1,06,2.30,528.3,M,-26.6,M,,*69
$GPGSA,A,3,07,27,04,30,09,08,,,,,,,3.01,2.30,1.95*08
$GPGSV,3,1,11,03,15,180,25,04,63,110,26,07,49,291,37,08,25,130,29*75
$GPGSV,3,2,11,09,80,346,35,16,,,23,20,,,23,26,03,044,*7C
$GPGSV,3,3,11,27,27,090,22,30,23,273,30,48,47,197,*47
$GPGLL,3606.63023,N,11504.35938,W,042520.00,A,A*78
$GPRMC,042521.00,A,3606.63022,N,11504.36040,W,2.728,,110823,,,A*62
$GPVTG,,T,,M,2.728,N,5.051,K,A*2D
$GPGGA,042521.00,3606.63022,N,11504.36040,W,1,06,2.30,528.5,M,-26.6,M,,*6A
$GPGSA,A,3,07,27,04,30,09,08,,,,,,,3.01,2.30,1.95*08
$GPGSV,3,1,11,03,15,180,23,04,63,110,26,07,49,291,35,08,25,130,21*79
$GPGSV,3,2,11,09,80,346,35,16,,,31,20,,,24,26,03,044,*78
$GPGSV,3,3,11,27,27,090,20,30,23,273,31,48,47,197,*44
$GPGLL,3606.63022,N,11504.36040,W,042521.00,A,A*7D
$GPRMC,042522.00,A,3606.63041,N,11504.36134,W,3.018,,110823,,,A*63
$GPVTG,,T,,M,3.018,N,5.589,K,A*28
$GPGGA,042522.00,3606.63041,N,11504.36134,W,1,06,2.30,528.1,M,-26.6,M,,*6A
$GPGSA,A,3,07,27,04,30,09,08,,,,,,,3.01,2.30,1.95*08
$GPGSV,3,1,11,03,15,180,22,04,63,110,27,07,49,291,35,08,25,130,24*7C
$GPGSV,3,2,11,09,80,346,36,16,,,31,20,,,30,26,03,044,*7E
$GPGSV,3,3,11,27,27,090,19,30,23,273,31,48,47,197,*4E
$GPGLL,3606.63041,N,11504.36134,W,042522.00,A,A*79
$GPRMC,042523.00,A,3606.63028,N,11504.36240,W,2.806,,110823,,,A*6B
$GPVTG,,T,,M,2.806,N,5.197,K,A*25
$GPGGA,042523.00,3606.63028,N,11504.36240,W,1,06,2.30,528.3,M,-26.6,M,,*66
$GPGSA,A,3,07,27,04,30,09,08,,,,,,,3.01,2.30,1.95*08
$GPGSV,3,1,11,03,15,180,23,04,63,110,26,07,49,291,37,08,25,130,26*7C
$GPGSV,3,2,11,09,80,346,37,16,,,30,20,,,24,26,03,044,*7B
$GPGSV,3,3,11,27,27,090,19,30,23,273,30,48,47,197,*4F
$GPGLL,3606.63028,N,11504.36240,W,042523.00,A,A*77
$GPRMC,042524.00,A,3606.63053,N,11504.36341,W,2.951,,110823,,,A*63
$GPVTG,,T,,M,2.951,N,5.465,K,A*2E
$GPGGA,042524.00,3606.63053,N,11504.36341,W,1,06,2.30,528.1,M,-26.6,M,,*6F
$GPGSA,A,3,07,27,04,30,09,08,,,,,,,3.01,2.30,1.95*08
$GPGSV,3,1,11,03,15,180,22,04,63,110,26,07,49,291,32,08,25,130,26*78
$GPGSV,3,2,11,09,80,346,37,16,,,29,20,,,25,26,03,044,*72
$GPGSV,3,3,11,27,27,090,21,30,23,273,32,48,47,197,*46
$GPGLL,3606.63053,N,11504.36341,W,042524.00,A,A*7C
$GPRMC,042525.00,A,3606.62975,N,11504.36494,W,3.101,,110823,,,A*6D
$GPVTG,,T,,M,3.101,N,5.743,K,A*25
$GPGGA,042525.00,3606.62975,N,11504.36494,W,1,06,2.30,529.4,M,-26.6,M,,*69
$GPGSA,A,3,07,27,04,30,09,08,,,,,,,3.01,2.30,1.95*08
$GPGSV,3,1,11,03,15,180,19,04,63,110,25,07,49,291,37,08,25,130,27*77
$GPGSV,3,2,11,09,80,346,37,16,,,21,20,,,24,26,03,044,*7B
$GPGSV,3,3,11,27,27,090,25,30,23,273,31,48,47,197,*41
$GPGLL,3606.62975,N,11504.36494,W,042525.00,A,A*7E
$GPRMC,042526.00,A,3606.63056,N,11504.36556,W,2.732,,110823,,,A*6F
$GPVTG,,T,,M,2.732,N,5.059,K,A*2E
$GPGGA,042526.00,3606.63056,N,11504.36556,W,1,06,2.30,527.9,M,-26.6,M,,*6F
$GPGSA,A,3,07,27,04,30,09,08,,,,,,,3.01,2.30,1.95*08
$GPGSV,3,1,11,03,15,180,18,04,63,110,25,07,49,291,34,08,25,130,28*7A
$GPGSV,3,2,11,09,80,346,36,16,,,22,20,,,23,26,03,044,*7E
$GPGSV,3,3,11,27,27,090,24,30,23,273,32,48,47,197,*43
$GPGLL,3606.63056,N,11504.36556,W,042526.00,A,A*7B
$GPRMC,042527.00,A,3606.63057,N,11504.36663,W,2.968,,110823,,,A*6B
$GPVTG,,T,,M,2.968,N,5.497,K,A*29
$GPGGA,042527.00,3606.63057,N,11504.36663,W,1,06,2.30,527.8,M,-26.6,M,,*6B
$GPGSA,A,3,07,27,04,30,09,08,,,,,,,3.01,2.30,1.95*08
$GPGSV,3,1,11,03,15,180,18,04,63,110,25,07,49,291,37,08,25,130,27*76
$GPGSV,3,2,11,09,80,346,36,16,,,23,20,,,23,26,03,044,*7F
$GPGSV,3,3,11,27,27,090,24,30,23,273,32,48,47,197,*43
$GPGLL,3606.63057,N,11504.36663,W,042527.00,A,A*7E
$GPRMC,042528.00,A,3606.63011,N,11504.36784,W,2.848,,110823,,,A*6D
$GPVTG,,T,,M,2.848,N,5.274,K,A*21
$GPGGA,042528.00,3606.63011,N,11504.36784,W,1,06,2.30,528.5,M,-26.6,M,,*6C
$GPGSA,A,3,07,27,04,30,09,08,,,,,,,3.01,2.30,1.95*08
$GPGSV,3,1,11,03,15,180,18,04,63,110,31,07,49,291,34,08,25,130,26*71
$GPGSV,3,2,11,09,80,346,37,16,,,22,20,,,23,26,03,044,*7F
$GPGSV,3,3,11,27,27,090,24,30,23,273,29,48,47,197,*49
$GPGLL,3606.63011,N,11504.36784,W,042528.00,A,A*7B
$GPRMC,042529.00,A,3606.63083,N,11504.36850,W,2.741,,110823,,,A*67
$GPVTG,,T,,M,2.741,N,5.076,K,A*27
$GPGGA,042529.00,3606.63083,N,11504.36850,W,1,06,2.29,527.5,M,-26.6,M,,*67
$GPGSA,A,3,07,27,04,30,09,08,,,,,,,3.01,2.29,1.95*00
$GPGSV,3,1,11,03,15,180,17,04,63,110,23,07,49,292,36,08,25,130,26*7C
$GPGSV,3,2,11,09,80,346,36,16,,,23,20,,,23,26,03,044,*7F
$GPGSV,3,3,11,27,27,090,25,30,23,273,31,48,47,197,*41
$GPGLL,3606.63083,N,11504.36850,W,042529.00,A,A*77
$GPRMC,042530.00,A,3606.63010,N,11504.36995,W,3.073,,110823,,,A*6A
$GPVTG,,T,,M,3.073,N,5.691,K,A*2F
$GPGGA,042530.00,3606.63010,N,11504.36995,W,1,06,2.29,528.8,M,-26.6,M,,*6F
$GPGSA,A,3,07,27,04,30,09,08,,,,,,,3.01,2.29,1.95*00
$GPGSV,3,1,11,03,15,180,18,04,63,110,26,07,49,292,35,08,25,130,25*76
$GPGSV,3,2,11,09,80,346,37,16,,,23,20,,,24,26,03,044,*79
$GPGSV,3,3,11,27,27,090,25,30,23,273,26,48,47,197,*47
$GPGLL,3606.63010,N,11504.36995,W,042530.00,A,A*7D
$GPRMC,042531.00,A,3606.63024,N,11504.37088,W,2.848,,110823,,,A*69
$GPVTG,,T,,M,2.848,N,5.275,K,A*20
$GPGGA,042531.00,3606.63024,N,11504.37088,W,1,06,2.29,528.6,M,-26.6,M,,*63
$GPGSA,A,3,07,27,04,30,09,08,,,,,,,3.01,2.29,1.95*00
$GPGSV,3,1,11,03,15,180,22,04,63,110,27,07,49,292,37,08,25,130,23*7A
$GPGSV,3,2,11,09,80,347,36,16,,,24,20,,,22,26,03,044,*78
$GPGSV,3,3,11,27,27,090,25,30,23,273,31,48,47,197,*41
$GPGLL,3606.63024,N,11504.37088,W,042531.00,A,A*7F
$GPRMC,042532.00,A,3606.62971,N,11504.37200,W,3.044,,110823,,,A*65
$GPVTG,,T,,M,3.044,N,5.638,K,A*28
$GPGGA,042532.00,3606.62971,N,11504.37200,W,1,06,2.29,528.9,M,-26.6,M,,*65
$GPGSA,A,3,07,27,04,30,09,08,,,,,,,3.01,2.29,1.95*00
$GPGSV,3,1,11,03,15,180,22,04,63,110,31,07,49,292,37,08,25,130,22*7C
$GPGSV,3,2,11,09,80,347,29,16,,,23,20,,,22,26,03,044,*71
$GPGSV,3,3,11,27,27,090,25,30,23,273,34,48,47,197,*44
$GPGLL,3606.62971,N,11504.37200,W,042532.00,A,A*76
$GPRMC,042533.00,A,3606.62948,N,11504.37310,W,2.935,,110823,,,A*60
$GPVTG,,T,,M,2.935,N,5.435,K,A*29
$GPGGA,042533.00,3606.62948,N,11504.37310,W,1,06,2.29,529.3,M,-26.6,M,,*65
$GPGSA,A,3,07,27,04,30,09,08,,,,,,,3.01,2.29,1.95*00
$GPGSV,3,1,11,03,15,180,20,04,63,110,27,07,49,292,37,08,25,130,20*7B
$GPGSV,3,2,11,09,80,347,31,16,,,22,20,,,22,26,03,044,*79
$GPGSV,3,3,11,27,27,090,23,30,23,273,33,48,47,197,*45
$GPGLL,3606.62948,N,11504.37310,W,042533.00,A,A*7D
$GPRMC,042534.00,A,3606.62951,N,11504.37402,W,2.863,,110823,,,A*69
$GPVTG,,T,,M,2.863,N,5.303,K,A*29
$GPGGA,042534.00,3606.62951,N,11504.37402,W,1,06,2.29,529.2,M,-26.6,M,,*6F
$GPGSA,A,3,07,27,04,30,09,08,,,,,,,3.01,2.29,1.95*00
$GPGSV,3,1,11,03,15,180,18,04,63,110,28,07,49,292,36,08,25,130,20*7E
$GPGSV,3,2,11,09,80,347,32,16,,,22,20,,,22,26,03,044,*7A
$GPGSV,3,3,11,27,27,090,24,30,23,273,33,48,47,197,*42
$GPGLL,3606.62951,N,11504.37402,W,042534.00,A,A*76
$GPRMC,042535.00,A,3606.62890,N,11504.37532,W,3.264,251.25,110823,,,A*75
$GPVTG,251.25,T,,M,3.264,N,6.045,K,A*38
$GPGGA,042535.00,3606.62890,N,11504.37532,W,1,06,2.29,530.1,M,-26.6,M,,*6B
$GPGSA,A,3,07,27,04,30,09,08,,,,,,,3.01,2.29,1.95*00
$GPGSV,3,1,11,03,15,180,19,04,63,110,27,07,49,292,33,08,25,130,31*75
$GPGSV,3,2,11,09,80,347,31,16,,,23,20,,,30,26,03,044,*7B
$GPGSV,3,3,11,27,27,090,25,30,23,273,33,48,47,197,*43
$GPGLL,3606.62890,N,11504.37532,W,042535.00,A,A*79
$GPRMC,042536.00,A,3606.62895,N,11504.37648,W,3.255,261.20,110823,,,A*79
$GPVTG,261.20,T,,M,3.255,N,6.029,K,A*36
$GPGGA,042536.00,3606.62895,N,11504.37648,W,1,06,2.29,530.7,M,-26.6,M,,*65
$GPGSA,A,3,07,27,04,30,09,08,,,,,,,3.01,2.29,1.95*00
$GPGSV,3,1,11,03,15,180,18,04,63,110,31,07,49,292,33,08,25,130,30*72
$GPGSV,3,2,11,09,80,347,34,16,,,23,20,,,21,26,03,044,*7E
$GPGSV,3,3,11,27,27,090,25,30,23,273,33,48,47,197,*43
$GPGLL,3606.62895,N,11504.37648,W,042536.00,A,A*71
$GPRMC,042537.00,A,3606.62874,N,11504.37767,W,3.068,265.88,110823,,,A*71
$GPVTG,265.88,T,,M,3.068,N,5.683,K,A*39
$GPGGA,042537.00,3606.62874,N,11504.37767,W,1,06,2.29,531.3,M,-26.6,M,,*62
$GPGSA,A,3,07,27,04,30,09,08,,,,,,,3.01,2.29,1.95*00
$GPGSV,3,1,11,03,15,180,19,04,63,110,24,07,49,292,36,08,25,130,29*7A
$GPGSV,3,2,11,09,80,347,34,16,,,22,20,,,21,26,03,044,*7F
$GPGSV,3,3,11,27,27,090,30,30,23,273,33,48,47,197,*47
$GPGLL,3606.62874,N,11504.37767,W,042537.00,A,A*73
$GPRMC,042538.00,A,3606.62875,N,11504.37869,W,2.843,269.17,110823,,,A*74
$GPVTG,269.17,T,,M,2.843,N,5.266,K,A*3C
$GPGGA,042538.00,3606.62875,N,11504.37869,W,1,06,2.29,531.8,M,-26.6,M,,*66
$GPGSA,A,3,07,27,04,30,09,08,,,,,,,3.01,2.29,1.95*00
$GPGSV,3,1,11,03,15,180,20,04,63,110,26,07,49,292,33,08,25,130,30*7F
$GPGSV,3,2,11,09,80,347,30,16,,,21,20,,,23,26,03,044,*7A
$GPGSV,3,3,11,27,27,090,29,30,23,273,33,48,47,197,*4F
$GPGLL,3606.62875,N,11504.37869,W,042538.00,A,A*7C
$GPRMC,042539.00,A,3606.62888,N,11504.37958,W,2.873,269.46,110823,,,A*73
$GPVTG,269.46,T,,M,2.873,N,5.320,K,A*38
$GPGGA,042539.00,3606.62888,N,11504.37958,W,1,06,2.29,531.6,M,-26.6,M,,*68
$GPGSA,A,3,07,27,04,30,09,08,,,,,,,3.01,2.29,1.95*00
$GPGSV,3,1,11,03,15,180,20,04,63,110,26,07,49,292,36,08,25,130,29*72
$GPGSV,3,2,11,09,80,347,34,16,,,22,20,,,23,26,03,044,*7D
$GPGSV,3,3,11,27,27,090,24,30,23,273,34,48,47,197,*45
$GPGLL,3606.62888,N,11504.37958,W,042539.00,A,A*7C
$GPRMC,042540.00,A,3606.62903,N,11504.38052,W,3.030,270.64,110823,,,A*75
$GPVTG,270.64,T,,M,3.030,N,5.612,K,A*3A
$GPGGA,042540.00,3606.62903,N,11504.38052,W,1,06,2.29,531.6,M,-26.6,M,,*68
$GPGSA,A,3,07,27,04,30,09,08,,,,,,,3.01,2.29,1.95*00
$GPGSV,3,1,11,03,15,180,18,04,63,110,26,07,49,292,34,08,25,130,20*72
$GPGSV,3,2,11,09,80,347,34,16,,,21,20,,,22,26,03,044,*7F
$GPGSV,3,3,11,27,27,090,31,30,23,273,37,48,47,197,*42
$GPGLL,3606.62903,N,11504.38052,W,042540.00,A,A*7C
$GPRMC,042541.00,A,3606.62899,N,11504.38151,W,2.982,271.23,110823,,,A*77
$GPVTG,271.23,T,,M,2.982,N,5.523,K,A*38
$GPGGA,042541.00,3606.62899,N,11504.38151,W,1,06,2.29,531.8,M,-26.6,M,,*67
$GPGSA,A,3,07,27,04,30,09,08,,,,,,,3.01,2.29,1.95*00
$GPGSV,3,1,11,03,15,180,18,04,63,110,27,07,49,292,34,08,25,130,33*71
$GPGSV,3,2,11,09,80,347,31,16,,,22,20,,,23,26,03,044,*78
$GPGSV,3,3,11,27,27,090,25,30,23,273,34,48,47,197,*44
$GPGLL,3606.62899,N,11504.38151,W,042541.00,A,A*7D
$GPRMC,042542.00,A,3606.62872,N,11504.38255,W,2.834,268.50,110823,,,A*76
$GPVTG,268.50,T,,M,2.834,N,5.248,K,A*32
$GPGGA,042542.00,3606.62872,N,11504.38255,W,1,06,2.29,532.2,M,-26.6,M,,*6F
$GPGSA,A,3,07,27,04,30,09,08,,,,,,,3.01,2.29,1.95*00
$GPGSV,3,1,11,03,15,180,17,04,63,110,27,07,49,292,35,08,25,130,27*7A
$GPGSV,3,2,11,09,80,347,35,16,,,20,20,,,24,26,03,044,*79
$GPGSV,3,3,11,27,27,090,26,30,23,273,33,48,47,197,*40
$GPGLL,3606.62872,N,11504.38255,W,042542.00,A,A*7C
$GPRMC,042543.00,A,3606.62853,N,11504.38371,W,3.128,269.13,110823,,,A*70
$GPVTG,269.13,T,,M,3.128,N,5.794,K,A*35
$GPGGA,042543.00,3606.62853,N,11504.38371,W,1,06,2.29,532.8,M,-26.6,M,,*60
$GPGSA,A,3,07,27,04,30,09,08,,,,,,,3.01,2.29,1.95*00
$GPGSV,3,1,11,03,15,180,21,04,63,110,31,07,49,292,35,08,25,130,26*79
$GPGSV,3,2,11,09,80,347,32,16,,,20,20,,,26,26,03,044,*7C
$GPGSV,3,3,11,27,27,090,27,30,23,273,35,48,47,197,*47
$GPGLL,3606.62853,N,11504.38371,W,042543.00,A,A*79
$GPRMC,042544.00,A,3606.62871,N,11504.38481,W,3.392,271.74,110823,,,A*74
$GPVTG,271.74,T,,M,3.392,N,6.281,K,A*3C
$GPGGA,042544.00,3606.62871,N,11504.38481,W,1,06,2.29,533.0,M,-26.6,M,,*66
$GPGSA,A,3,07,27,04,30,09,08,,,,,,,3.01,2.29,1.95*00
$GPGSV,3,1,11,03,15,180,22,04,63,110,31,07,49,292,34,08,25,130,27*7A
$GPGSV,3,2,11,09,80,347,34,16,,,22,20,,,31,26,03,044,*7E
$GPGSV,3,3,11,27,27,090,26,30,23,273,34,48,47,197,*47
$GPGLL,3606.62871,N,11504.38481,W,042544.00,A,A*76
$GPRMC,042545.00,A,3606.62857,N,11504.38589,W,3.087,271.06,110823,,,A*7A
$GPVTG,271.06,T,,M,3.087,N,5.717,K,A*37
$GPGGA,042545.00,3606.62857,N,11504.38589,W,1,06,2.29,533.3,M,-26.6,M,,*69
$GPGSA,A,3,07,27,04,30,09,08,,,,,,,3.01,2.29,1.95*00
$GPGSV,3,1,11,03,15,180,24,04,63,110,26,07,49,292,34,08,25,130,28*75
$GPGSV,3,2,11,09,80,347,34,16,,,22,20,,,24,26,03,044,*7A
$GPGSV,3,3,11,27,27,090,26,30,23,273,36,48,47,197,*45
$GPGLL,3606.62857,N,11504.38589,W,042545.00,A,A*7A
$GPRMC,042546.00,A,3606.62852,N,11504.38684,W,2.899,267.38,110823,,,A*7E
$GPVTG,267.38,T,,M,2.899,N,5.369,K,A*36
$GPGGA,042546.00,3606.62852,N,11504.38684,W,1,06,2.29,533.2,M,-26.6,M,,*60
$GPGSA,A,3,07,27,04,30,09,08,,,,,,,3.01,2.29,1.95*00
$GPGSV,3,1,11,03,15,180,23,04,63,110,28,07,49,292,36,08,25,130,27*71
$GPGSV,3,2,11,09,80,347,33,16,,,22,20,,,26,26,03,044,*7F
$GPGSV,3,3,11,27,27,090,30,30,23,273,34,48,47,197,*40
$GPGLL,3606.62852,N,11504.38684,W,042546.00,A,A*72
$GPRMC,042547.00,A,3606.62860,N,11504.38782,W,3.174,266.88,110823,,,A*78
$GPVTG,266.88,T,,M,3.174,N,5.878,K,A*3C
$GPGGA,042547.00,3606.62860,N,11504.38782,W,1,06,2.29,533.3,M,-26.6,M,,*66
$GPGSA,A,3,07,27,04,30,09,08,,,,,,,3.01,2.29,1.95*00
$GPGSV,3,1,11,03,15,180,21,04,63,110,28,07,49,292,33,08,25,130,30*70
$GPGSV,3,2,11,09,80,347,32,16,,,22,20,,,24,26,03,044,*7C
$GPGSV,3,3,11,27,27,090,23,30,23,273,35,48,47,197,*43
$GPGLL,3606.62860,N,11504.38782,W,042547.00,A,A*75
$GPRMC,042548.00,A,3606.62860,N,11504.38883,W,3.356,267.77,110823,,,A*7A
$GPVTG,267.77,T,,M,3.356,N,6.215,K,A*3D
$GPGGA,042548.00,3606.62860,N,11504.38883,W,1,06,2.29,533.3,M,-26.6,M,,*67
$GPGSA,A,3,07,27,04,30,09,08,,,,,,,3.01,2.29,1.95*00
$GPGSV,3,1,11,03,15,180,19,04,63,110,28,07,49,292,35,08,25,130,30*7D
$GPGSV,3,2,11,09,80,347,34,16,,,21,20,,,23,26,03,044,*7E
$GPGSV,3,3,11,27,27,090,26,30,23,273,34,48,47,197,*47
$GPGLL,3606.62860,N,11504.38883,W,042548.00,A,A*74
$GPRMC,042549.00,A,3606.62881,N,11504.38987,W,3.160,271.11,110823,,,A*71
$GPVTG,271.11,T,,M,3.160,N,5.852,K,A*37
$GPGGA,042549.00,3606.62881,N,11504.38987,W,1,06,2.29,533.5,M,-26.6,M,,*6A
$GPGSA,A,3,07,27,04,30,09,08,,,,,,,3.01,2.29,1.95*00
$GPGSV,3,1,11,03,15,180,18,04,63,110,29,07,49,292,35,08,25,130,30*7D
$GPGSV,3,2,11,09,80,347,31,16,,,20,20,,,22,26,03,044,*7B
$GPGSV,3,3,11,27,27,090,25,30,23,273,34,48,47,197,*44
$GPGLL,3606.62881,N,11504.38987,W,042549.00,A,A*7F
$GPRMC,042550.00,A,3606.62901,N,11504.39091,W,3.111,275.12,110823,,,A*7E
$GPVTG,275.12,T,,M,3.111,N,5.762,K,A*3A
$GPGGA,042550.00,3606.62901,N,11504.39091,W,1,06,2.29,533.7,M,-26.6,M,,*66
$GPGSA,A,3,07,27,04,30,09,08,,,,,,,3.01,2.29,1.95*00
$GPGSV,3,1,11,03,15,180,19,04,63,110,29,07,49,292,33,08,25,130,31*7B
$GPGSV,3,2,11,09,80,347,32,16,,,20,20,,,23,26,03,044,*79
$GPGSV,3,3,11,27,27,090,25,30,23,273,35,48,47,197,*45
$GPGLL,3606.62901,N,11504.39091,W,042550.00,A,A*71
$GPRMC,042551.00,A,3606.62891,N,11504.39204,W,3.104,277.33,110823,,,A*7C
$GPVTG,277.33,T,,M,3.104,N,5.750,K,A*3E
$GPGGA,042551.00,3606.62891,N,11504.39204,W,1,06,2.29,534.3,M,-26.6,M,,*62
$GPGSA,A,3,07,27,04,30,09,08,,,,,,,3.01,2.29,1.95*00
$GPGSV,3,1,11,03,15,180,24,04,63,110,29,07,49,292,36,08,25,130,31*70
$GPGSV,3,2,11,09,80,347,33,16,,,19,20,,,22,26,03,044,*73
$GPGSV,3,3,11,27,27,090,29,30,23,273,32,48,47,197,*4E
$GPGLL,3606.62891,N,11504.39204,W,042551.00,A,A*76
$GPRMC,042552.00,A,3606.62933,N,11504.39292,W,3.163,279.69,110823,,,A*79
$GPVTG,279.69,T,,M,3.163,N,5.858,K,A*39
$GPGGA,042552.00,3606.62933,N,11504.39292,W,1,06,2.29,534.0,M,-26.6,M,,*64
$GPGSA,A,3,07,27,04,30,09,08,,,,,,,3.00,2.29,1.95*01
$GPGSV,3,1,11,03,15,180,27,04,63,110,23,07,49,292,35,08,25,130,30*7B
$GPGSV,3,2,11,09,80,347,33,16,,,20,20,,,22,26,03,044,*79
$GPGSV,3,3,11,27,27,090,22,30,23,273,33,48,47,197,*44
$GPGLL,3606.62933,N,11504.39292,W,042552.00,A,A*73
$GPRMC,042553.00,A,3606.62941,N,11504.39386,W,2.910,276.62,110823,,,A*70
$GPVTG,276.62,T,,M,2.910,N,5.389,K,A*37
$GPGGA,042553.00,3606.62941,N,11504.39386,W,1,06,2.29,534.0,M,-26.6,M,,*64
$GPGSA,A,3,07,27,04,30,09,08,,,,,,,3.00,2.29,1.95*01
$GPGSV,3,1,11,03,15,180,26,04,63,110,25,07,49,292,33,08,25,130,29*72
$GPGSV,3,2,11,09,80,347,34,16,,,19,20,,,20,26,03,044,*76
$GPGSV,3,3,11,27,27,090,21,30,23,273,35,48,47,197,*41
$GPGLL,3606.62941,N,11504.39386,W,042553.00,A,A*73
$GPRMC,042554.00,A,3606.62913,N,11504.39485,W,2.738,269.06,110823,,,A*7C
$GPVTG,269.06,T,,M,2.738,N,5.070,K,A*3A
$GPGGA,042554.00,3606.62913,N,11504.39485,W,1,06,2.29,534.3,M,-26.6,M,,*63
$GPGSA,A,3,07,27,04,30,09,08,,,,,,,3.00,2.29,1.95*01
$GPGSV,3,1,11,03,15,180,24,04,63,110,26,07,49,292,35,08,25,130,29*75
$GPGSV,3,2,11,09,80,347,33,16,,,21,20,,,19,26,03,044,*70
$GPGSV,3,3,11,27,27,090,19,30,23,273,32,48,47,197,*4D
$GPGLL,3606.62913,N,11504.39485,W,042554.00,A,A*77
$GPRMC,042555.00,A,3606.62905,N,11504.39578,W,2.824,265.70,110823,,,A*76
$GPVTG,265.70,T,,M,2.824,N,5.229,K,A*3B
$GPGGA,042555.00,3606.62905,N,11504.39578,W,1,06,2.29,534.4,M,-26.6,M,,*61
$GPGSA,A,3,07,27,04,30,09,08,,,,,,,3.00,2.29,1.95*01
$GPGSV,3,1,11,03,15,180,22,04,63,110,27,07,49,292,35,08,26,130,29*71
$GPGSV,3,2,11,09,80,347,33,16,,,23,20,,,17,26,03,044,*7C
$GPGSV,3,3,11,27,27,090,23,30,23,273,35,48,47,197,*43
$GPGLL,3606.62905,N,11504.39578,W,042555.00,A,A*72
$GPRMC,042556.00,A,3606.62897,N,11504.39666,W,2.846,263.88,110823,,,A*76
$GPVTG,263.88,T,,M,2.846,N,5.272,K,A*30
$GPGGA,042556.00,3606.62897,N,11504.39666,W,1,06,2.29,534.5,M,-26.6,M,,*65
$GPGSA,A,3,07,27,04,30,09,08,,,,,,,3.00,2.29,1.95*01
$GPGSV,3,1,11,03,15,180,21,04,63,110,27,07,49,292,34,08,26,130,34*7F
$GPGSV,3,2,11,09,80,347,34,16,,,23,20,,,19,26,03,044,*75
$GPGSV,3,3,11,27,27,090,31,30,23,273,32,48,47,197,*47
$GPGLL,3606.62897,N,11504.39666,W,042556.00,A,A*77
$GPRMC,042557.00,A,3606.62868,N,11504.39761,W,2.610,262.52,110823,,,A*7A
$GPVTG,262.52,T,,M,2.610,N,4.834,K,A*32
$GPGGA,042557.00,3606.62868,N,11504.39761,W,1,06,2.29,534.8,M,-26.6,M,,*6F
$GPGSA,A,3,07,27,04,30,09,08,,,,,,,3.00,2.29,1.95*01
$GPGSV,3,1,11,03,15,180,21,04,63,110,27,07,49,292,34,08,26,130,30*7B
$GPGSV,3,2,11,09,80,347,34,16,,,23,20,,,19,26,03,044,*75
$GPGSV,3,3,11,27,27,090,30,30,23,273,29,48,47,197,*4C
$GPGLL,3606.62868,N,11504.39761,W,042557.00,A,A*70
$GPRMC,042558.00,A,3606.62831,N,11504.39784,W,0.893,231.40,110823,,,A*70
$GPVTG,231.40,T,,M,0.893,N,1.654,K,A*3D
$GPGGA,042558.00,3606.62831,N,11504.39784,W,1,06,2.29,535.4,M,-26.6,M,,*6A
$GPGSA,A,3,07,27,04,30,09,08,,,,,,,3.00,2.29,1.95*01
$GPGSV,3,1,11,03,15,180,21,04,63,110,27,07,49,292,38,08,26,130,34*73
$GPGSV,3,2,11,09,80,347,36,16,,,22,20,,,20,26,03,044,*7C
$GPGSV,3,3,11,27,27,090,30,30,23,273,35,48,47,197,*41
$GPGLL,3606.62831,N,11504.39784,W,042558.00,A,A*78
$GPRMC,042559.00,A,3606.62979,N,11504.39709,W,0.503,,110823,,,A*67
$GPVTG,,T,,M,0.503,N,0.931,K,A*2E
$GPGGA,042559.00,3606.62979,N,11504.39709,W,1,06,2.29,533.2,M,-26.6,M,,*63
$GPGSA,A,3,07,27,04,30,09,08,,,,,,,3.00,2.29,1.95*01
$GPGSV,3,1,11,03,15,180,23,04,63,110,35,07,49,292,30,08,26,130,28*77
$GPGSV,3,2,11,09,80,347,33,16,,,30,20,,,21,26,03,044,*7B
$GPGSV,3,3,11,27,27,090,33,30,23,273,26,48,47,197,*40
$GPGLL,3606.62979,N,11504.39709,W,042559.00,A,A*71
$GPRMC,042600.00,A,3606.63017,N,11504.39627,W,2.500,144.80,110823,,,A*73
$GPVTG,144.80,T,,M,2.500,N,4.630,K,A*32
$GPGGA,042600.00,3606.63017,N,11504.39627,W,1,06,2.29,533.1,M,-26.6,M,,*62
$GPGSA,A,3,07,27,04,30,09,08,,,,,,,3.00,2.29,1.95*01
$GPGSV,3,1,11,03,15,180,23,04,63,110,35,07,49,292,29,08,26,130,33*75
$GPGSV,3,2,11,09,80,347,33,16,,,33,20,,,23,26,03,044,*7A
$GPGSV,3,3,11,27,27,090,34,30,23,273,32,48,47,197,*42
$GPGLL,3606.63017,N,11504.39627,W,042600.00,A,A*73
$GPRMC,042601.00,A,3606.63019,N,11504.39530,W,3.164,109.53,110823,,,A*79
$GPVTG,109.53,T,,M,3.164,N,5.860,K,A*38
$GPGGA,042601.00,3606.63019,N,11504.39530,W,1,06,2.29,533.3,M,-26.6,M,,*6A
$GPGSA,A,3,07,27,04,30,09,08,,,,,,,3.00,2.29,1.94*00
$GPGSV,3,1,11,03,15,180,22,04,63,110,32,07,49,292,29,08,26,130,29*78
$GPGSV,3,2,11,09,80,347,32,16,,,30,20,,,24,26,03,044,*7F
$GPGSV,3,3,11,27,27,090,31,30,23,273,31,48,47,197,*44
$GPGLL,3606.63019,N,11504.39530,W,042601.00,A,A*79
$GPRMC,042602.00,A,3606.63019,N,11504.39413,W,3.407,99.81,110823,,,A*4D
$GPVTG,99.81,T,,M,3.407,N,6.309,K,A*08
$GPGGA,042602.00,3606.63019,N,11504.39413,W,1,06,2.29,533.5,M,-26.6,M,,*6F
$GPGSA,A,3,07,27,04,30,09,08,,,,,,,3.00,2.29,1.94*00
$GPGSV,3,1,11,03,15,180,23,04,63,110,33,07,49,292,29,08,26,130,27*76
$GPGSV,3,2,11,09,80,347,33,16,,,29,20,,,21,26,03,044,*73
$GPGSV,3,3,11,27,27,090,34,30,23,273,30,48,47,197,*40
$GPGLL,3606.63019,N,11504.39413,W,042602.00,A,A*7A
$GPRMC,042603.00,A,3606.63007,N,11504.39311,W,3.344,93.27,110823,,,A*40
$GPVTG,93.27,T,,M,3.344,N,6.193,K,A*0F
$GPGGA,042603.00,3606.63007,N,11504.39311,W,1,06,2.29,533.8,M,-26.6,M,,*69
$GPGSA,A,3,07,27,04,30,09,08,,,,,,,3.00,2.29,1.94*00
$GPGSV,3,1,11,03,15,180,22,04,63,110,36,07,49,292,29,08,26,130,28*7D
$GPGSV,3,2,11,09,80,347,32,16,,,29,20,,,22,26,03,044,*71
$GPGSV,3,3,11,27,27,090,36,30,23,273,28,48,47,197,*4B
$GPGLL,3606.63007,N,11504.39311,W,042603.00,A,A*71
$GPRMC,042604.00,A,3606.63009,N,11504.39195,W,3.273,92.56,110823,,,A*45
$GPVTG,92.56,T,,M,3.273,N,6.061,K,A*01
$GPGGA,042604.00,3606.63009,N,11504.39195,W,1,06,2.29,533.6,M,-26.6,M,,*60
$GPGSA,A,3,07,27,04,30,09,08,,,,,,,3.00,2.29,1.94*00
$GPGSV,3,1,11,03,15,180,25,04,63,110,33,07,49,292,23,08,26,130,20*7D
$GPGSV,3,2,11,09,80,347,32,16,,,28,20,,,22,26,03,044,*70
$GPGSV,3,3,11,27,27,090,28,30,23,273,28,48,47,197,*44
$GPGLL,3606.63009,N,11504.39195,W,042604.00,A,A*76
$GPRMC,042605.00,A,3606.63016,N,11504.39085,W,3.093,91.27,110823,,,A*43
$GPVTG,91.27,T,,M,3.093,N,5.728,K,A*01
$GPGGA,042605.00,3606.63016,N,11504.39085,W,1,06,2.29,533.6,M,-26.6,M,,*6F
$GPGSA,A,3,07,27,04,30,09,08,,,,,,,3.00,2.29,1.94*00
$GPGSV,3,1,11,03,15,180,26,04,63,110,34,07,49,292,30,08,26,130,20*7B
$GPGSV,3,2,11,09,80,347,32,16,,,27,20,,,22,26,03,044,*7F
$GPGSV,3,3,11,27,27,090,27,30,23,273,28,48,47,197,*4B
$GPGLL,3606.63016,N,11504.39085,W,042605.00,A,A*79
$GPRMC,042606.00,A,3606.63020,N,11504.38978,W,3.139,90.06,110823,,,A*4C
$GPVTG,90.06,T,,M,3.139,N,5.814,K,A*02
$GPGGA,042606.00,3606.63020,N,11504.38978,W,1,06,2.29,533.7,M,-26.6,M,,*62
$GPGSA,A,3,07,27,04,30,09,08,,,,,,,3.00,2.29,1.94*00
$GPGSV,3,1,11,03,15,180,25,04,63,110,34,07,49,292,30,08,26,130,27*7F
$GPGSV,3,2,11,09,80,347,32,16,,,32,20,,,22,26,03,044,*7B
$GPGSV,3,3,11,27,27,090,32,30,23,273,27,48,47,197,*40
$GPGLL,3606.63020,N,11504.38978,W,042606.00,A,A*75
$GPRMC,042607.00,A,3606.63025,N,11504.38872,W,3.097,88.64,110823,,,A*4B
$GPVTG,88.64,T,,M,3.097,N,5.736,K,A*05
$GPGGA,042607.00,3606.63025,N,11504.38872,W,1,06,2.29,533.7,M,-26.6,M,,*6D
$GPGSA,A,3,07,27,04,30,09,08,,,,,,,3.00,2.29,1.94*00
$GPGSV,3,1,11,03,15,180,23,04,63,110,36,07,49,292,30,08,26,130,27*7B
$GPGSV,3,2,11,09,80,347,28,16,,,32,20,,,23,26,03,044,*71
$GPGSV,3,3,11,27,27,090,33,30,23,273,28,48,47,197,*4E
$GPGLL,3606.63025,N,11504.38872,W,042607.00,A,A*7A
$GPRMC,042608.00,A,3606.63019,N,11504.38763,W,3.244,89.88,110823,,,A*4B
$GPVTG,89.88,T,,M,3.244,N,6.008,K,A*03
$GPGGA,042608.00,3606.63019,N,11504.38763,W,1,06,2.29,533.7,M,-26.6,M,,*62
$GPGSA,A,3,07,27,04,30,09,08,,,,,,,3.00,2.29,1.94*00
$GPGSV,3,1,11,03,15,180,22,04,63,110,33,07,49,292,30,08,26,130,27*7F
$GPGSV,3,2,11,09,80,347,35,16,,,28,20,,,24,26,03,044,*71
$GPGSV,3,3,11,27,27,090,33,30,23,273,29,48,47,197,*4F
$GPGLL,3606.63019,N,11504.38763,W,042608.00,A,A*75
$GPRMC,042609.00,A,3606.63044,N,11504.38649,W,3.161,87.92,110823,,,A*4A
$GPVTG,87.92,T,,M,3.161,N,5.855,K,A*01
$GPGGA,042609.00,3606.63044,N,11504.38649,W,1,06,2.28,533.6,M,-26.6,M,,*62
$GPGSA,A,3,07,27,04,30,09,08,,,,,,,3.00,2.28,1.94*01
$GPGSV,3,1,11,03,15,180,21,04,63,110,33,07,49,292,30,08,26,130,20*7B
$GPGSV,3,2,11,09,80,347,28,16,,,27,20,,,22,26,03,044,*74
$GPGSV,3,3,11,27,27,090,33,30,23,273,29,48,47,197,*4F
$GPGLL,3606.63044,N,11504.38649,W,042609.00,A,A*75
$GPRMC,042610.00,A,3606.63047,N,11504.38543,W,3.196,87.03,110823,,,A*48
$GPVTG,87.03,T,,M,3.196,N,5.919,K,A*08
$GPGGA,042610.00,3606.63047,N,11504.38543,W,1,06,2.28,533.8,M,-26.6,M,,*6E
$GPGSA,A,3,07,27,04,30,09,08,,,,,,,3.00,2.28,1.94*01
$GPGSV,3,1,11,03,15,180,21,04,63,110,34,07,49,292,25,08,26,130,21*79
$GPGSV,3,2,11,09,80,347,32,16,,,28,20,,,22,26,03,044,*70
$GPGSV,3,3,11,27,27,090,34,30,23,273,29,48,47,197,*48
$GPGLL,3606.63047,N,11504.38543,W,042610.00,A,A*77
$GPRMC,042611.00,A,3606.63054,N,11504.38436,W,3.115,86.98,110823,,,A*40
$GPVTG,86.98,T,,M,3.115,N,5.769,K,A*09
$GPGGA,042611.00,3606.63054,N,11504.38436,W,1,06,2.28,533.9,M,-26.6,M,,*6F
$GPGSA,A,3,07,27,04,30,09,08,,,,,,,3.00,2.28,1.94*01
$GPGSV,3,1,11,03,15,180,21,04,63,110,33,07,49,292,32,08,26,130,22*7B
$GPGSV,3,2,11,09,80,347,32,16,,,22,20,,,22,26,03,044,*7A
$GPGSV,3,3,11,27,27,090,32,30,23,273,29,48,47,197,*4E
$GPGLL,3606.63054,N,11504.38436,W,042611.00,A,A*77
$GPRMC,042612.00,A,3606.63070,N,11504.38327,W,2.963,87.79,110823,,,A*44
$GPVTG,87.79,T,,M,2.963,N,5.487,K,A*0C
$GPGGA,042612.00,3606.63070,N,11504.38327,W,1,06,2.28,533.9,M,-26.6,M,,*6D
