$GPTXT,01,01,02,u-blox ag - www.u-blox.com*50
$GPTXT,01,01,02,HW  UBX-G70xx   00070000 *77
$GPTXT,01,01,02,ROM CORE 1.00 (59842) Jun 27 2012 17:43:52*59
$GPTXT,01,01,02,PROTVER 14.00*1E
$GPTXT,01,01,02,ANTSUPERV=AC SD PDoS SR*20
$GPTXT,01,01,02,ANTSTATUS=OK*3B
$GPTXT,01,01,02,LLC FFFFFFFF-FFFFFFFD-FFFFFFFF-FFFFFFFF-FFFFFFF9*53
$GPRMC,191859.00,A,3606.62128,N,11504.30565,W,0.753,,060823,,,A*69
$GPVTG,,T,,M,0.753,N,1.395,K,A*2C
$GPGGA,191859.00,3606.62128,N,11504.30565,W,1,07,1.22,516.1,M,-26.6,M,,*61
$GPGSA,A,3,23,26,10,27,18,29,15,,,,,,2.20,1.22,1.83*0E
$GPGSV,4,1,14,08,02,325,,10,50,267,25,13,09,037,,15,36,052,20*7C
$GPGSV,4,2,14,16,17,268,,18,65,061,26,23,71,344,23,24,13,106,*78
$GPGSV,4,3,14,26,07,240,12,27,33,311,11,29,20,158,21,32,14,198,16*7E
$GPGSV,4,4,14,46,46,203,,48,47,197,*7D
$GPGLL,3606.62128,N,11504.30565,W,191859.00,A,A*7E
$GPRMC,191900.00,A,3606.62136,N,11504.30565,W,0.583,,060823,,,A*64
$GPVTG,,T,,M,0.583,N,1.079,K,A*22
$GPGGA,191900.00,3606.62136,N,11504.30565,W,1,07,1.22,516.5,M,-26.6,M,,*67
$GPGSA,A,3,23,26,10,27,18,29,15,,,,,,2.20,1.22,1.83*0E
$GPGSV,4,1,14,08,02,325,,10,50,267,27,13,09,037,,15,36,052,20*7E
$GPGSV,4,2,14,16,17,268,,18,65,061,26,23,71,344,24,24,13,106,*7F
$GPGSV,4,3,14,26,07,240,12,27,33,311,11,29,20,158,20,32,14,198,16*7F
$GPGSV,4,4,14,46,46,203,,48,47,197,*7D
$GPGLL,3606.62136,N,11504.30565,W,191900.00,A,A*7C
$GPRMC,191901.00,A,3606.62155,N,11504.30552,W,0.538,,060823,,,A*64
$GPVTG,,T,,M,0.538,N,0.996,K,A*2B
$GPGGA,191901.00,3606.62155,N,11504.30552,W,1,07,1.22,516.3,M,-26.6,M,,*61
$GPGSA,A,3,23,26,10,27,18,29,15,,,,,,2.20,1.22,1.83*0E
$GPGSV,4,1,14,08,02,325,,10,50,267,30,13,09,037,,15,36,052,22*7A
$GPGSV,4,2,14,16,17,268,02,18,65,061,27,23,71,344,25,24,13,106,*7D
$GPGSV,4,3,14,26,07,240,12,27,33,311,11,29,20,158,19,32,14,198,16*75
$GPGSV,4,4,14,46,46,203,,48,47,197,*7D
$GPGLL,3606.62155,N,11504.30552,W,191901.00,A,A*7C
$GPRMC,191902.00,A,3606.62144,N,11504.30538,W,0.182,,060823,,,A*6E
$GPVTG,,T,,M,0.182,N,0.337,K,A*2F
$GPGGA,191902.00,3606.62144,N,11504.30538,W,1,07,1.22,516.2,M,-26.6,M,,*6F
$GPGSA,A,3,23,26,10,27,18,29,15,,,,,,2.20,1.22,1.83*0E
$GPGSV,4,1,14,08,02,325,,10,50,267,30,13,09,037,,15,36,052,21*79
$GPGSV,4,2,14,16,17,268,06,18,65,061,27,23,71,344,26,24,13,106,*7A
$GPGSV,4,3,14,26,07,240,13,27,33,311,15,29,20,158,18,32,14,198,15*72
$GPGSV,4,4,14,46,46,203,,48,47,197,*7D
$GPGLL,3606.62144,N,11504.30538,W,191902.00,A,A*73
$GPRMC,191903.00,A,3606.62160,N,11504.30542,W,0.333,,060823,,,A*6C
$GPVTG,,T,,M,0.333,N,0.616,K,A*21
$GPGGA,191903.00,3606.62160,N,11504.30542,W,1,07,1.22,516.0,M,-26.6,M,,*67
$GPGSA,A,3,23,26,10,27,18,29,15,,,,,,2.20,1.22,1.83*0E
$GPGSV,4,1,14,08,02,325,,10,50,267,30,13,09,037,,15,36,052,22*7A
$GPGSV,4,2,14,16,17,268,11,18,65,061,27,23,71,344,26,24,13,106,*7C
$GPGSV,4,3,14,26,07,240,13,27,33,311,15,29,20,158,18,32,14,198,16*71
$GPGSV,4,4,14,46,46,203,,48,47,197,*7D
$GPGLL,3606.62160,N,11504.30542,W,191903.00,A,A*79
$GPRMC,191904.00,A,3606.62168,N,11504.30531,W,0.296,,060823,,,A*69
$GPVTG,,T,,M,0.296,N,0.548,K,A*27
$GPGGA,191904.00,3606.62168,N,11504.30531,W,1,07,1.22,515.8,M,-26.6,M,,*67
$GPGSA,A,3,23,26,10,27,18,29,15,,,,,,2.20,1.22,1.83*0E
$GPGSV,4,1,14,08,02,325,,10,50,267,30,13,09,037,,15,36,052,21*79
$GPGSV,4,2,14,16,17,268,10,18,65,061,27,23,71,344,25,24,13,106,*7E
$GPGSV,4,3,14,26,07,240,13,27,33,311,15,29,20,158,17,32,14,198,16*7E
$GPGSV,4,4,14,46,46,203,,48,47,197,*7D
$GPGLL,3606.62168,N,11504.30531,W,191904.00,A,A*72
$GPRMC,191905.00,A,3606.62207,N,11504.30537,W,0.717,,060823,,,A*68
$GPVTG,,T,,M,0.717,N,1.328,K,A*2A
$GPGGA,191905.00,3606.62207,N,11504.30537,W,1,07,1.22,515.6,M,-26.6,M,,*64
$GPGSA,A,3,23,26,10,27,18,29,15,,,,,,2.20,1.22,1.83*0E
$GPGSV,4,1,14,08,02,325,,10,50,267,30,13,09,037,,15,36,052,20*78
$GPGSV,4,2,14,16,17,268,11,18,65,061,27,23,71,344,25,24,13,106,*7F
$GPGSV,4,3,14,26,07,240,13,27,33,311,15,29,20,158,17,32,14,198,16*7E
$GPGSV,4,4,14,46,46,203,,48,47,197,*7D
$GPGLL,3606.62207,N,11504.30537,W,191905.00,A,A*7F
$GPRMC,191906.00,A,3606.62187,N,11504.30497,W,0.415,,060823,,,A*6A
$GPVTG,,T,,M,0.415,N,0.768,K,A*2A
$GPGGA,191906.00,3606.62187,N,11504.30497,W,1,08,1.18,516.0,M,-26.6,M,,*64
$GPGSA,A,3,23,16,26,10,27,18,29,15,,,,,2.12,1.18,1.76*0B
$GPGSV,4,1,14,08,02,325,,10,50,267,30,13,09,037,,15,36,052,22*7A
$GPGSV,4,2,14,16,17,268,12,18,65,061,28,23,71,344,25,24,13,106,*73
$GPGSV,4,3,14,26,07,240,13,27,33,311,15,29,20,158,17,32,14,198,16*7E
$GPGSV,4,4,14,46,46,203,,48,47,197,*7D
$GPGLL,3606.62187,N,11504.30497,W,191906.00,A,A*7C
$GPRMC,191907.00,A,3606.62168,N,11504.30456,W,0.193,,060823,,,A*6C
$GPVTG,,T,,M,0.193,N,0.358,K,A*26
$GPGGA,191907.00,3606.62168,N,11504.30456,W,1,08,1.18,516.5,M,-26.6,M,,*6C
$GPGSA,A,3,23,16,26,10,27,18,29,15,,,,,2.12,1.18,1.76*0B
$GPGSV,4,1,14,08,02,325,,10,50,267,29,13,09,037,07,15,36,052,22*75
$GPGSV,4,2,14,16,17,268,14,18,65,061,28,23,71,344,25,24,13,106,*75
$GPGSV,4,3,14,26,07,240,13,27,33,311,15,29,20,158,18,32,14,198,15*72
$GPGSV,4,4,14,46,46,203,,48,47,197,*7D
$GPGLL,3606.62168,N,11504.30456,W,191907.00,A,A*71
$GPRMC,191908.00,A,3606.62153,N,11504.30426,W,0.117,,060823,,,A*60
$GPVTG,,T,,M,0.117,N,0.217,K,A*20
$GPGGA,191908.00,3606.62153,N,11504.30426,W,1,08,1.18,516.9,M,-26.6,M,,*60
$GPGSA,A,3,23,16,26,10,27,18,29,15,,,,,2.12,1.18,1.76*0B
$GPGSV,4,1,14,08,02,325,,10,50,267,27,13,09,037,09,15,36,052,23*74
$GPGSV,4,2,14,16,17,268,13,18,65,061,28,23,71,344,25,24,13,106,*72
$GPGSV,4,3,14,26,07,240,11,27,33,311,16,29,20,158,18,32,14,198,15*73
$GPGSV,4,4,14,46,46,203,,48,47,197,*7D
$GPGLL,3606.62153,N,11504.30426,W,191908.00,A,A*71
$GPRMC,191909.00,A,3606.62169,N,11504.30415,W,0.318,,060823,,,A*65
$GPVTG,,T,,M,0.318,N,0.590,K,A*25
$GPGGA,191909.00,3606.62169,N,11504.30415,W,1,08,1.18,516.6,M,-26.6,M,,*67
$GPGSA,A,3,23,16,26,10,27,18,29,15,,,,,2.12,1.18,1.76*0B
$GPGSV,4,1,14,08,02,325,,10,50,267,27,13,09,037,10,15,36,052,23*7C
$GPGSV,4,2,14,16,17,268,12,18,65,061,27,23,71,344,24,24,13,106,*7D
$GPGSV,4,3,14,26,07,240,11,27,33,311,16,29,20,158,18,32,14,198,15*73
$GPGSV,4,4,14,46,46,203,,48,47,197,*7D
$GPGLL,3606.62169,N,11504.30415,W,191909.00,A,A*79
$GPRMC,191910.00,A,3606.62169,N,11504.30401,W,0.256,,060823,,,A*63
$GPVTG,,T,,M,0.256,N,0.474,K,A*25
$GPGGA,191910.00,3606.62169,N,11504.30401,W,1,08,1.18,516.7,M,-26.6,M,,*6B
$GPGSA,A,3,23,16,26,10,27,18,29,15,,,,,2.12,1.18,1.76*0B
$GPGSV,4,1,14,08,02,325,,10,50,267,27,13,09,037,12,15,36,052,24*79
$GPGSV,4,2,14,16,17,268,13,18,65,061,27,23,71,344,25,24,13,106,*7D
$GPGSV,4,3,14,26,07,240,11,27,33,311,16,29,20,158,17,32,14,198,15*7C
$GPGSV,4,4,14,46,46,203,,48,47,197,*7D
$GPGLL,3606.62169,N,11504.30401,W,191910.00,A,A*74
$GPRMC,191911.00,A,3606.62165,N,11504.30411,W,0.453,,060823,,,A*6C
$GPVTG,,T,,M,0.453,N,0.839,K,A*23
$GPGGA,191911.00,3606.62165,N,11504.30411,W,1,09,0.92,517.1,M,-26.6,M,,*62
$GPGSA,A,3,23,16,26,10,27,13,18,29,15,,,,1.49,0.92,1.17*00
$GPGSV,4,1,14,08,02,324,,10,50,267,26,13,09,037,12,15,36,052,23*7E
$GPGSV,4,2,14,16,17,268,13,18,65,061,28,23,71,344,25,24,13,106,*72
$GPGSV,4,3,14,26,07,240,11,27,33,311,16,29,20,158,17,32,14,198,13*7A
$GPGSV,4,4,14,46,46,203,,48,47,197,*7D
$GPGLL,3606.62165,N,11504.30411,W,191911.00,A,A*78
$GPRMC,191912.00,A,3606.62151,N,11504.30425,W,0.382,,060823,,,A*64
$GPVTG,,T,,M,0.382,N,0.707,K,A*2A
$GPGGA,191912.00,3606.62151,N,11504.30425,W,1,09,0.92,517.4,M,-26.6,M,,*64
$GPGSA,A,3,23,16,26,10,27,13,18,29,15,,,,1.49,0.92,1.17*00
$GPGSV,4,1,14,08,02,324,,10,50,267,26,13,09,037,10,15,36,052,22*7D
$GPGSV,4,2,14,16,17,268,11,18,65,061,28,23,71,344,25,24,13,106,16*77
$GPGSV,4,3,14,26,07,240,11,27,33,311,16,29,20,158,17,32,14,198,13*7A
$GPGSV,4,4,14,46,46,203,,48,47,197,*7D
$GPGLL,3606.62151,N,11504.30425,W,191912.00,A,A*7B
$GPRMC,191913.00,A,3606.62135,N,11504.30433,W,0.140,,060823,,,A*6C
$GPVTG,,T,,M,0.140,N,0.259,K,A*28
$GPGGA,191913.00,3606.62135,N,11504.30433,W,1,08,1.22,517.4,M,-26.6,M,,*6B
$GPGSA,A,3,23,16,26,10,27,18,29,15,,,,,2.20,1.22,1.83*09
$GPGSV,4,1,14,08,02,324,,10,50,268,26,13,09,037,09,15,36,052,22*7A
$GPGSV,4,2,14,16,17,268,11,18,65,061,27,23,71,344,25,24,13,106,16*78
$GPGSV,4,3,14,26,07,240,11,27,33,311,16,29,20,158,18,32,14,198,15*73
$GPGSV,4,4,14,46,46,203,,48,47,197,*7D
$GPGLL,3606.62135,N,11504.30433,W,191913.00,A,A*7F
$GPRMC,191914.00,A,3606.62135,N,11504.30438,W,0.071,,060823,,,A*63
$GPVTG,,T,,M,0.071,N,0.132,K,A*25
$GPGGA,191914.00,3606.62135,N,11504.30438,W,1,07,1.22,517.2,M,-26.6,M,,*6E
$GPGSA,A,3,23,26,10,27,18,29,15,,,,,,2.20,1.22,1.83*0E
$GPGSV,4,1,14,08,02,324,,10,50,268,26,13,09,037,09,15,36,052,23*7B
$GPGSV,4,2,14,16,17,268,,18,65,061,28,23,71,344,25,24,13,106,15*74
$GPGSV,4,3,14,26,07,240,13,27,33,311,16,29,20,158,19,32,14,198,16*73
$GPGSV,4,4,14,46,46,203,,48,47,197,*7D
$GPGLL,3606.62135,N,11504.30438,W,191914.00,A,A*73
$GPRMC,191915.00,A,3606.62108,N,11504.30432,W,0.245,,060823,,,A*63
$GPVTG,,T,,M,0.245,N,0.454,K,A*25
$GPGGA,191915.00,3606.62108,N,11504.30432,W,1,07,1.22,517.1,M,-26.6,M,,*68
$GPGSA,A,3,23,26,10,27,18,29,15,,,,,,2.20,1.22,1.83*0E
$GPGSV,4,1,14,08,02,324,,10,50,268,26,13,09,037,09,15,36,052,23*7B
$GPGSV,4,2,14,16,17,268,,18,65,061,27,23,71,344,25,24,13,106,15*7B
$GPGSV,4,3,14,26,07,240,13,27,33,311,16,29,20,158,19,32,14,198,14*71
$GPGSV,4,4,14,46,46,203,,48,47,197,*7D
$GPGLL,3606.62108,N,11504.30432,W,191915.00,A,A*76
$GPRMC,191916.00,A,3606.62151,N,11504.30437,W,0.366,,060823,,,A*69
$GPVTG,,T,,M,0.366,N,0.677,K,A*26
$GPGGA,191916.00,3606.62151,N,11504.30437,W,1,07,1.22,516.8,M,-26.6,M,,*6A
$GPGSA,A,3,23,26,10,27,18,29,15,,,,,,2.20,1.22,1.83*0E
$GPGSV,4,1,14,08,02,324,,10,50,268,26,13,08,036,09,15,36,052,23*7B
$GPGSV,4,2,14,16,17,268,,18,65,061,27,23,71,344,25,24,13,106,16*78
$GPGSV,4,3,14,26,07,240,13,27,33,311,16,29,20,158,19,32,14,198,15*70
$GPGSV,4,4,14,46,46,203,,48,47,197,*7D
$GPGLL,3606.62151,N,11504.30437,W,191916.00,A,A*7C
$GPRMC,191917.00,A,3606.62141,N,11504.30430,W,0.223,,060823,,,A*6E
$GPVTG,,T,,M,0.223,N,0.412,K,A*27
$GPGGA,191917.00,3606.62141,N,11504.30430,W,1,07,1.22,516.7,M,-26.6,M,,*62
$GPGSA,A,3,23,26,10,27,18,29,15,,,,,,2.20,1.22,1.83*0E
$GPGSV,4,1,14,08,02,324,,10,50,268,24,13,08,036,09,15,36,052,23*79
$GPGSV,4,2,14,16,17,268,06,18,65,061,28,23,71,344,25,24,13,106,16*71
$GPGSV,4,3,14,26,07,240,13,27,33,311,16,29,20,158,18,32,14,198,14*70
$GPGSV,4,4,14,46,46,203,,48,47,197,*7D
$GPGLL,3606.62141,N,11504.30430,W,191917.00,A,A*7B
$GPRMC,191918.00,A,3606.62118,N,11504.30429,W,0.137,,060823,,,A*63
$GPVTG,,T,,M,0.137,N,0.253,K,A*22
$GPGGA,191918.00,3606.62118,N,11504.30429,W,1,07,1.22,516.7,M,-26.6,M,,*69
$GPGSA,A,3,23,26,10,27,18,29,15,,,,,,2.20,1.22,1.83*0E
$GPGSV,4,1,14,08,02,324,,10,50,268,25,13,08,036,09,15,36,052,24*7F
$GPGSV,4,2,14,16,17,268,07,18,65,061,27,23,71,344,25,24,13,106,16*7F
$GPGSV,4,3,14,26,07,240,13,27,33,311,16,29,20,158,19,32,14,198,14*71
$GPGSV,4,4,14,46,46,203,,48,47,197,*7D
$GPGLL,3606.62118,N,11504.30429,W,191918.00,A,A*70
$GPRMC,191919.00,A,3606.62091,N,11504.30437,W,0.358,,060823,,,A*66
$GPVTG,,T,,M,0.358,N,0.663,K,A*2E
$GPGGA,191919.00,3606.62091,N,11504.30437,W,1,07,1.22,516.6,M,-26.6,M,,*66
$GPGSA,A,3,23,26,10,27,18,29,15,,,,,,2.20,1.22,1.83*0E
$GPGSV,4,1,14,08,02,324,,10,50,268,26,13,08,036,08,15,36,052,22*7B
$GPGSV,4,2,14,16,16,267,08,18,65,061,27,23,71,344,26,24,13,106,15*7E
$GPGSV,4,3,14,26,07,240,13,27,33,311,16,29,20,158,20,32,14,198,15*7A
$GPGSV,4,4,14,46,46,203,,48,47,197,*7D
$GPGLL,3606.62091,N,11504.30437,W,191919.00,A,A*7E
$GPRMC,191920.00,A,3606.62070,N,11504.30443,W,0.313,,060823,,,A*6F
$GPVTG,,T,,M,0.313,N,0.579,K,A*29
$GPGGA,191920.00,3606.62070,N,11504.30443,W,1,08,0.97,516.9,M,-26.6,M,,*6F
$GPGSA,A,3,23,26,10,27,13,18,29,15,,,,,1.55,0.97,1.21*0A
$GPGSV,4,1,14,08,02,324,,10,50,268,28,13,08,036,09,15,36,052,20*76
$GPGSV,4,2,14,16,16,267,08,18,65,061,27,23,71,344,26,24,13,106,12*79
$GPGSV,4,3,14,26,07,240,12,27,33,311,16,29,20,158,19,32,14,198,16*72
$GPGSV,4,4,14,46,46,203,,48,47,197,*7D
$GPGLL,3606.62070,N,11504.30443,W,191920.00,A,A*78
$GPRMC,191921.00,A,3606.62043,N,11504.30447,W,0.385,,060823,,,A*65
$GPVTG,,T,,M,0.385,N,0.712,K,A*29
$GPGGA,191921.00,3606.62043,N,11504.30447,W,1,08,0.97,517.2,M,-26.6,M,,*60
$GPGSA,A,3,23,26,10,27,13,18,29,15,,,,,1.55,0.97,1.21*0A
$GPGSV,4,1,14,08,02,324,,10,50,268,28,13,08,036,09,15,36,052,18*7D
$GPGSV,4,2,14,16,16,267,08,18,65,062,27,23,71,344,26,24,13,106,10*78
$GPGSV,4,3,14,26,07,240,12,27,33,311,16,29,20,158,18,32,14,198,15*70
$GPGSV,4,4,14,46,46,203,,48,47,197,*7D
$GPGLL,3606.62043,N,11504.30447,W,191921.00,A,A*7D
$GPRMC,191922.00,A,3606.62025,N,11504.30449,W,0.354,,060823,,,A*64
$GPVTG,,T,,M,0.354,N,0.655,K,A*27
$GPGGA,191922.00,3606.62025,N,11504.30449,W,1,08,0.97,517.3,M,-26.6,M,,*6C
$GPGSA,A,3,23,26,10,27,13,18,29,15,,,,,1.55,0.97,1.21*0A
$GPGSV,4,1,14,08,02,324,,10,50,268,28,13,08,036,09,15,36,052,17*72
$GPGSV,4,2,14,16,16,267,09,18,65,062,27,23,71,344,26,24,13,106,10*79
$GPGSV,4,3,14,26,07,240,12,27,33,311,16,29,20,158,17,32,14,198,16*7C
$GPGSV,4,4,14,46,46,203,,48,47,197,*7D
$GPGLL,3606.62025,N,11504.30449,W,191922.00,A,A*70
$GPRMC,191923.00,A,3606.62043,N,11504.30457,W,0.085,,060823,,,A*65
$GPVTG,,T,,M,0.085,N,0.157,K,A*2D
$GPGGA,191923.00,3606.62043,N,11504.30457,W,1,08,0.97,517.5,M,-26.6,M,,*64
$GPGSA,A,3,23,26,10,27,13,18,29,15,,,,,1.55,0.97,1.21*0A
$GPGSV,4,1,14,08,02,324,,10,50,268,29,13,08,036,09,15,36,052,17*73
$GPGSV,4,2,14,16,16,267,08,18,65,062,27,23,71,344,26,24,13,106,12*7A
$GPGSV,4,3,14,26,07,240,12,27,33,311,16,29,20,158,15,32,14,198,16*7E
$GPGSV,4,4,14,46,46,203,,48,47,197,*7D
$GPGLL,3606.62043,N,11504.30457,W,191923.00,A,A*7E
$GPRMC,191924.00,A,3606.62062,N,11504.30467,W,0.332,,060823,,,A*6D
$GPVTG,,T,,M,0.332,N,0.615,K,A*23
$GPGGA,191924.00,3606.62062,N,11504.30467,W,1,08,0.97,517.7,M,-26.6,M,,*61
$GPGSA,A,3,23,26,10,27,13,18,29,15,,,,,1.55,0.97,1.21*0A
$GPGSV,4,1,14,08,02,324,,10,50,268,28,13,08,036,09,15,36,052,17*72
$GPGSV,4,2,14,16,16,267,09,18,65,062,27,23,71,344,26,24,13,106,14*7D
$GPGSV,4,3,14,26,07,240,12,27,33,311,16,29,20,158,14,32,14,198,17*7E
$GPGSV,4,4,14,46,46,203,,48,47,197,*7D
$GPGLL,3606.62062,N,11504.30467,W,191924.00,A,A*79
$GPRMC,191925.00,A,3606.62040,N,11504.30460,W,0.090,,060823,,,A*60
$GPVTG,,T,,M,0.090,N,0.167,K,A*2A
$GPGGA,191925.00,3606.62040,N,11504.30460,W,1,07,1.22,517.9,M,-26.6,M,,*69
$GPGSA,A,3,23,26,10,27,18,29,15,,,,,,2.20,1.22,1.83*0E
$GPGSV,4,1,14,08,02,324,,10,50,268,28,13,08,036,,15,36,052,19*75
$GPGSV,4,2,14,16,16,267,09,18,65,062,27,23,71,345,26,24,13,106,15*7D
$GPGSV,4,3,14,26,07,240,12,27,33,311,16,29,20,158,16,32,14,198,17*7C
$GPGSV,4,4,14,46,46,203,,48,47,197,*7D
$GPGLL,3606.62040,N,11504.30460,W,191925.00,A,A*7F
$GPRMC,191926.00,A,3606.62047,N,11504.30460,W,0.035,,060823,,,A*6B
$GPVTG,,T,,M,0.035,N,0.065,K,A*26
$GPGGA,191926.00,3606.62047,N,11504.30460,W,1,07,1.22,518.1,M,-26.6,M,,*6A
$GPGSA,A,3,23,26,10,27,18,29,15,,,,,,2.20,1.22,1.83*0E
$GPGSV,4,1,14,08,02,324,,10,50,268,28,13,08,036,,15,36,052,18*74
$GPGSV,4,2,14,16,16,267,08,18,65,062,27,23,71,345,26,24,13,106,15*7C
$GPGSV,4,3,14,26,07,240,13,27,33,311,12,29,20,158,17,32,14,198,17*78
$GPGSV,4,4,14,46,46,203,,48,47,197,*7D
$GPGLL,3606.62047,N,11504.30460,W,191926.00,A,A*7B
$GPRMC,191927.00,A,3606.62053,N,11504.30461,W,0.072,,060823,,,A*6D
$GPVTG,,T,,M,0.072,N,0.133,K,A*27
$GPGGA,191927.00,3606.62053,N,11504.30461,W,1,07,1.22,518.3,M,-26.6,M,,*6D
$GPGSA,A,3,23,26,10,27,18,29,15,,,,,,2.20,1.22,1.83*0E
$GPGSV,4,1,14,08,02,324,,10,50,268,28,13,08,036,,15,36,052,18*74
$GPGSV,4,2,14,16,16,267,08,18,65,062,27,23,71,345,26,24,13,106,16*7F
$GPGSV,4,3,14,26,07,240,13,27,33,311,16,29,20,158,17,32,14,198,16*7D
$GPGSV,4,4,14,46,46,203,,48,47,197,*7D
$GPGLL,3606.62053,N,11504.30461,W,191927.00,A,A*7E
$GPRMC,191928.00,A,3606.62018,N,11504.30443,W,0.423,,060823,,,A*6D
$GPVTG,,T,,M,0.423,N,0.783,K,A*2A
$GPGGA,191928.00,3606.62018,N,11504.30443,W,1,07,1.22,518.6,M,-26.6,M,,*68
$GPGSA,A,3,23,26,10,27,18,29,15,,,,,,2.20,1.22,1.83*0E
$GPGSV,4,1,14,08,02,324,,10,50,268,28,13,08,036,,15,36,052,18*74
$GPGSV,4,2,14,16,16,267,08,18,65,062,27,23,71,345,26,24,13,106,15*7C
$GPGSV,4,3,14,26,07,240,13,27,33,311,17,29,20,158,18,32,14,198,15*70
$GPGSV,4,4,14,46,46,203,,48,47,197,*7D
$GPGLL,3606.62018,N,11504.30443,W,191928.00,A,A*7E
$GPRMC,191929.00,A,3606.62022,N,11504.30441,W,0.255,,060823,,,A*60
$GPVTG,,T,,M,0.255,N,0.472,K,A*20
$GPGGA,191929.00,3606.62022,N,11504.30441,W,1,07,1.22,518.9,M,-26.6,M,,*6D
$GPGSA,A,3,23,26,10,27,18,29,15,,,,,,2.20,1.22,1.83*0E
$GPGSV,4,1,14,08,02,324,,10,50,268,28,13,08,036,,15,36,052,18*74
$GPGSV,4,2,14,16,16,267,08,18,65,062,27,23,71,345,26,24,13,106,14*7D
$GPGSV,4,3,14,26,07,240,13,27,33,311,18,29,20,158,17,32,14,198,15*70
$GPGSV,4,4,14,46,46,203,,48,47,197,*7D
$GPGLL,3606.62022,N,11504.30441,W,191929.00,A,A*74
$GPRMC,191930.00,A,3606.62030,N,11504.30445,W,0.085,,060823,,,A*60
$GPVTG,,T,,M,0.085,N,0.157,K,A*2D
$GPGGA,191930.00,3606.62030,N,11504.30445,W,1,07,1.22,519.4,M,-26.6,M,,*6E
$GPGSA,A,3,23,26,10,27,18,29,15,,,,,,2.20,1.22,1.83*0E
$GPGSV,4,1,14,08,02,324,,10,50,268,28,13,08,036,,15,36,052,17*7B
$GPGSV,4,2,14,16,16,267,08,18,65,062,26,23,71,345,26,24,13,106,11*79
$GPGSV,4,3,14,26,07,240,13,27,33,311,18,29,20,158,17,32,14,198,15*70
$GPGSV,4,4,14,46,46,203,,48,47,197,*7D
$GPGLL,3606.62030,N,11504.30445,W,191930.00,A,A*7B
$GPRMC,191931.00,A,3606.61993,N,11504.30429,W,0.449,,060823,,,A*6C
$GPVTG,,T,,M,0.449,N,0.832,K,A*23
$GPGGA,191931.00,3606.61993,N,11504.30429,W,1,07,1.22,519.6,M,-26.6,M,,*64
$GPGSA,A,3,23,26,10,27,18,29,15,,,,,,2.20,1.22,1.83*0E
$GPGSV,4,1,14,08,02,324,,10,50,268,28,13,08,036,,15,36,052,17*7B
$GPGSV,4,2,14,16,16,267,08,18,65,062,27,23,71,345,25,24,13,106,11*7B
$GPGSV,4,3,14,26,07,240,13,27,33,311,18,29,20,159,17,32,14,198,16*72
$GPGSV,4,4,14,46,46,203,,48,47,197,*7D
$GPGLL,3606.61993,N,11504.30429,W,191931.00,A,A*73
$GPRMC,191932.00,A,3606.61990,N,11504.30433,W,0.289,,060823,,,A*6D
$GPVTG,,T,,M,0.289,N,0.535,K,A*23
$GPGGA,191932.00,3606.61990,N,11504.30433,W,1,07,1.22,519.9,M,-26.6,M,,*60
$GPGSA,A,3,23,26,10,27,18,29,15,,,,,,2.20,1.22,1.83*0E
$GPGSV,4,1,14,08,02,324,,10,50,268,27,13,08,036,,15,36,052,17*74
$GPGSV,4,2,14,16,16,267,10,18,65,062,27,23,71,345,25,24,13,106,12*71
$GPGSV,4,3,14,26,07,240,13,27,33,311,18,29,20,159,18,32,14,198,15*7E
$GPGSV,4,4,14,46,46,203,,48,47,197,*7D
$GPGLL,3606.61990,N,11504.30433,W,191932.00,A,A*78
$GPRMC,191933.00,A,3606.62003,N,11504.30438,W,0.102,,060823,,,A*67
$GPVTG,,T,,M,0.102,N,0.188,K,A*21
$GPGGA,191933.00,3606.62003,N,11504.30438,W,1,07,1.22,520.0,M,-26.6,M,,*69
$GPGSA,A,3,23,26,10,27,18,29,15,,,,,,2.20,1.22,1.83*0E
$GPGSV,4,1,14,08,02,324,,10,50,268,27,13,08,036,,15,36,052,17*74
$GPGSV,4,2,14,16,16,267,10,18,65,062,27,23,71,345,26,24,13,106,11*71
$GPGSV,4,3,14,26,07,240,13,27,33,311,18,29,20,159,17,32,14,198,16*72
$GPGSV,4,4,14,46,46,203,,48,47,197,*7D
$GPGLL,3606.62003,N,11504.30438,W,191933.00,A,A*72
$GPRMC,191934.00,A,3606.62022,N,11504.30440,W,0.282,,060823,,,A*67
$GPVTG,,T,,M,0.282,N,0.522,K,A*2E
$GPGGA,191934.00,3606.62022,N,11504.30440,W,1,08,1.18,520.3,M,-26.6,M,,*67
$GPGSA,A,3,23,16,26,10,27,18,29,15,,,,,2.12,1.18,1.76*0B
$GPGSV,4,1,14,08,02,324,,10,50,268,27,13,08,036,,15,36,052,17*74
$GPGSV,4,2,14,16,16,267,10,18,65,062,27,23,71,345,26,24,13,106,12*72
$GPGSV,4,3,14,26,07,240,13,27,33,311,18,29,20,159,16,32,15,198,17*73
$GPGSV,4,4,14,46,46,203,,48,47,197,*7D
$GPGLL,3606.62022,N,11504.30440,W,191934.00,A,A*79
$GPRMC,191935.00,A,3606.62037,N,11504.30443,W,0.397,,060823,,,A*64
$GPVTG,,T,,M,0.397,N,0.735,K,A*2F
$GPGGA,191935.00,3606.62037,N,11504.30443,W,1,08,1.18,520.5,M,-26.6,M,,*67
$GPGSA,A,3,23,16,26,10,27,18,29,15,,,,,2.12,1.18,1.76*0B
$GPGSV,4,1,14,08,02,324,,10,50,268,27,13,08,036,,15,36,052,17*74
$GPGSV,4,2,14,16,16,267,10,18,65,062,27,23,71,345,26,24,13,106,13*73
$GPGSV,4,3,14,26,07,240,13,27,33,311,18,29,20,159,18,32,15,198,17*7D
$GPGSV,4,4,14,46,46,203,,48,47,197,*7D
$GPGLL,3606.62037,N,11504.30443,W,191935.00,A,A*7F
$GPRMC,191936.00,A,3606.62037,N,11504.30445,W,0.309,,060823,,,A*66
$GPVTG,,T,,M,0.309,N,0.572,K,A*29
$GPGGA,191936.00,3606.62037,N,11504.30445,W,1,08,1.18,520.8,M,-26.6,M,,*6F
$GPGSA,A,3,23,16,26,10,27,18,29,15,,,,,2.12,1.18,1.76*0B
$GPGSV,4,1,14,08,02,324,,10,50,268,27,13,08,036,07,15,36,052,16*72
$GPGSV,4,2,14,16,16,267,10,18,65,062,27,23,71,345,26,24,13,106,14*74
$GPGSV,4,3,14,26,07,240,13,27,33,311,18,29,20,159,18,32,15,198,16*7C
$GPGSV,4,4,14,46,46,203,,48,47,197,*7D
$GPGLL,3606.62037,N,11504.30445,W,191936.00,A,A*7A
$GPRMC,191937.00,A,3606.62037,N,11504.30438,W,0.241,,060823,,,A*60
$GPVTG,,T,,M,0.241,N,0.447,K,A*23
$GPGGA,191937.00,3606.62037,N,11504.30438,W,1,08,1.18,520.9,M,-26.6,M,,*65
$GPGSA,A,3,23,16,26,10,27,18,29,15,,,,,2.12,1.18,1.76*0B
$GPGSV,4,1,14,08,02,324,,10,50,268,27,13,08,036,07,15,36,052,16*72
$GPGSV,4,2,14,16,16,267,10,18,65,062,27,23,71,345,27,24,13,106,14*75
$GPGSV,4,3,14,26,07,240,13,27,33,311,17,29,20,159,19,32,15,198,16*72
$GPGSV,4,4,14,46,46,203,,48,47,197,*7D
$GPGLL,3606.62037,N,11504.30438,W,191937.00,A,A*71
$GPRMC,191938.00,A,3606.62060,N,11504.30439,W,0.414,,060823,,,A*6A
$GPVTG,,T,,M,0.414,N,0.766,K,A*25
$GPGGA,191938.00,3606.62060,N,11504.30439,W,1,08,1.18,520.9,M,-26.6,M,,*69
$GPGSA,A,3,23,16,26,10,27,18,29,15,,,,,2.12,1.18,1.76*0B
$GPGSV,4,1,14,08,02,324,,10,50,268,27,13,08,036,09,15,36,052,17*7D
$GPGSV,4,2,14,16,16,267,12,18,65,062,27,23,71,345,27,24,13,106,14*77
$GPGSV,4,3,14,26,07,240,13,27,33,311,16,29,20,159,20,32,15,198,16*79
$GPGSV,4,4,14,46,46,203,,48,47,197,*7D
$GPGLL,3606.62060,N,11504.30439,W,191938.00,A,A*7D
$GPRMC,191939.00,A,3606.62070,N,11504.30445,W,0.469,,060823,,,A*6B
$GPVTG,,T,,M,0.469,N,0.868,K,A*2E
$GPGGA,191939.00,3606.62070,N,11504.30445,W,1,08,1.18,521.2,M,-26.6,M,,*68
$GPGSA,A,3,23,16,26,10,27,18,29,15,,,,,2.12,1.18,1.76*0B
$GPGSV,4,1,14,08,02,324,,10,50,268,27,13,08,036,09,15,36,052,19*73
$GPGSV,4,2,14,16,16,267,12,18,65,062,26,23,71,345,26,24,13,106,13*70
$GPGSV,4,3,14,26,07,240,13,27,33,311,18,29,20,159,20,32,15,198,16*77
$GPGSV,4,4,14,46,46,203,,48,47,197,*7D
$GPGLL,3606.62070,N,11504.30445,W,191939.00,A,A*76
$GPRMC,191940.00,A,3606.62050,N,11504.30445,W,0.239,,060823,,,A*64
$GPVTG,,T,,M,0.239,N,0.442,K,A*29
$GPGGA,191940.00,3606.62050,N,11504.30445,W,1,08,1.18,521.6,M,-26.6,M,,*60
$GPGSA,A,3,23,16,26,10,27,18,29,15,,,,,2.12,1.18,1.76*0B
$GPGSV,4,1,14,08,02,324,,10,50,268,27,13,08,036,09,15,36,052,19*73
$GPGSV,4,2,14,16,16,267,12,18,65,062,27,23,71,345,26,24,13,106,11*73
$GPGSV,4,3,14,26,07,240,13,27,33,311,18,29,20,159,21,32,15,198,16*76
$GPGSV,4,4,14,46,46,203,,48,47,197,*7D
$GPGLL,3606.62050,N,11504.30445,W,191940.00,A,A*7A
$GPRMC,191941.00,A,3606.62053,N,11504.30450,W,0.356,,060823,,,A*6A
$GPVTG,,T,,M,0.356,N,0.660,K,A*23
$GPGGA,191941.00,3606.62053,N,11504.30450,W,1,08,1.18,522.0,M,-26.6,M,,*63
$GPGSA,A,3,23,16,26,10,27,18,29,15,,,,,2.12,1.18,1.76*0B
$GPGSV,4,1,14,08,02,324,,10,50,268,27,13,08,036,09,15,36,052,19*73
$GPGSV,4,2,14,16,16,267,12,18,65,062,27,23,71,345,25,24,13,106,12*73
$GPGSV,4,3,14,26,07,240,13,27,33,311,18,29,20,159,22,32,15,198,16*75
$GPGSV,4,4,14,46,46,203,,48,47,197,*7D
$GPGLL,3606.62053,N,11504.30450,W,191941.00,A,A*7C
$GPRMC,191942.00,A,3606.62024,N,11504.30444,W,0.052,,060823,,,A*6B
$GPVTG,,T,,M,0.052,N,0.096,K,A*2B
$GPGGA,191942.00,3606.62024,N,11504.30444,W,1,08,1.18,522.4,M,-26.6,M,,*61
$GPGSA,A,3,23,16,26,10,27,18,29,15,,,,,2.12,1.18,1.76*0B
$GPGSV,4,1,14,08,02,324,,10,50,268,27,13,08,036,09,15,36,052,18*72
$GPGSV,4,2,14,16,16,267,12,18,65,062,27,23,71,345,24,24,13,106,12*72
$GPGSV,4,3,14,26,07,240,13,27,33,311,17,29,20,159,22,32,15,198,14*78
$GPGSV,4,4,14,46,46,203,,48,47,197,*7D
$GPGLL,3606.62024,N,11504.30444,W,191942.00,A,A*7A
$GPRMC,191943.00,A,3606.62008,N,11504.30437,W,0.104,,060823,,,A*62
$GPVTG,,T,,M,0.104,N,0.192,K,A*2C
$GPGGA,191943.00,3606.62008,N,11504.30437,W,1,08,1.18,522.7,M,-26.6,M,,*69
$GPGSA,A,3,23,16,26,10,27,18,29,15,,,,,2.12,1.18,1.76*0B
$GPGSV,4,1,14,08,02,324,,10,50,268,27,13,08,036,09,15,36,052,19*73
$GPGSV,4,2,14,16,16,267,12,18,65,062,27,23,71,345,23,24,13,106,13*74
$GPGSV,4,3,14,26,07,240,13,27,33,311,15,29,20,159,22,32,15,198,13*7D
$GPGSV,4,4,14,46,46,203,,48,47,197,*7D
$GPGLL,3606.62008,N,11504.30437,W,191943.00,A,A*71
$GPRMC,191944.00,A,3606.62053,N,11504.30438,W,0.504,,060823,,,A*60
$GPVTG,,T,,M,0.504,N,0.933,K,A*2B
$GPGGA,191944.00,3606.62053,N,11504.30438,W,1,09,0.92,522.5,M,-26.6,M,,*6F
$GPGSA,A,3,23,16,26,10,27,13,18,29,15,,,,1.49,0.92,1.17*00
$GPGSV,4,1,14,08,02,324,,10,50,268,27,13,08,036,08,15,36,052,19*72
$GPGSV,4,2,14,16,16,267,11,18,65,062,27,23,71,345,22,24,13,106,13*76
$GPGSV,4,3,14,26,07,240,13,27,33,311,15,29,20,159,22,32,15,198,13*7D
$GPGSV,4,4,14,46,46,203,,48,47,197,*7D
$GPGLL,3606.62053,N,11504.30438,W,191944.00,A,A*77
$GPRMC,191945.00,A,3606.62074,N,11504.30431,W,0.509,,060823,,,A*60
$GPVTG,,T,,M,0.509,N,0.944,K,A*26
$GPGGA,191945.00,3606.62074,N,11504.30431,W,1,09,0.92,522.2,M,-26.6,M,,*65
$GPGSA,A,3,23,16,26,10,27,13,18,29,15,,,,1.49,0.92,1.17*00
$GPGSV,4,1,14,08,02,324,,10,50,268,27,13,08,036,08,15,36,052,18*73
$GPGSV,4,2,14,16,16,267,11,18,65,062,27,23,71,345,22,24,13,106,12*77
$GPGSV,4,3,14,26,07,240,13,27,33,311,15,29,20,159,23,32,15,198,13*7C
$GPGSV,4,4,14,46,46,203,,48,47,197,*7D
$GPGLL,3606.62074,N,11504.30431,W,191945.00,A,A*7A
$GPRMC,191946.00,A,3606.62101,N,11504.30423,W,0.501,,060823,,,A*6B
$GPVTG,,T,,M,0.501,N,0.927,K,A*2B
$GPGGA,191946.00,3606.62101,N,11504.30423,W,1,09,0.92,521.6,M,-26.6,M,,*61
$GPGSA,A,3,23,16,26,10,27,13,18,29,15,,,,1.49,0.92,1.17*00
$GPGSV,4,1,14,08,02,324,,10,50,268,27,13,08,036,08,15,36,052,18*73
$GPGSV,4,2,14,16,16,267,11,18,65,062,27,23,71,345,22,24,13,106,11*74
$GPGSV,4,3,14,26,07,240,13,27,33,311,16,29,20,159,23,32,15,198,15*79
$GPGSV,4,4,14,46,46,203,,48,47,197,*7D
$GPGLL,3606.62101,N,11504.30423,W,191946.00,A,A*79
$GPRMC,191947.00,A,3606.62112,N,11504.30413,W,0.336,,060823,,,A*69
$GPVTG,,T,,M,0.336,N,0.622,K,A*23
$GPGGA,191947.00,3606.62112,N,11504.30413,W,1,09,0.92,521.3,M,-26.6,M,,*64
$GPGSA,A,3,23,16,26,10,27,13,18,29,15,,,,1.49,0.92,1.17*00
$GPGSV,4,1,14,08,02,324,,10,50,268,27,13,08,036,08,15,36,052,17*7C
$GPGSV,4,2,14,16,16,267,11,18,65,062,27,23,71,345,21,24,13,106,13*75
$GPGSV,4,3,14,26,07,240,13,27,33,311,17,29,20,159,23,32,15,198,15*78
$GPGSV,4,4,14,46,46,203,,48,47,197,*7D
$GPGLL,3606.62112,N,11504.30413,W,191947.00,A,A*79
$GPRMC,191948.00,A,3606.62141,N,11504.30404,W,0.392,,060823,,,A*68
$GPVTG,,T,,M,0.392,N,0.727,K,A*29
$GPGGA,191948.00,3606.62141,N,11504.30404,W,1,09,0.92,520.8,M,-26.6,M,,*61
$GPGSA,A,3,23,16,26,10,27,13,18,29,15,,,,1.49,0.92,1.17*00
$GPGSV,4,1,14,08,02,324,,10,50,268,27,13,08,036,08,15,36,052,17*7C
$GPGSV,4,2,14,16,16,267,11,18,65,062,27,23,71,345,21,24,13,106,13*75
$GPGSV,4,3,14,26,07,240,13,27,33,311,16,29,20,159,23,32,15,198,15*79
$GPGSV,4,4,14,46,46,203,,48,47,197,*7D
$GPGLL,3606.62141,N,11504.30404,W,191948.00,A,A*76
$GPRMC,191949.00,A,3606.62165,N,11504.30393,W,0.313,,060823,,,A*6F
$GPVTG,,T,,M,0.313,N,0.579,K,A*29
$GPGGA,191949.00,3606.62165,N,11504.30393,W,1,09,0.92,520.0,M,-26.6,M,,*67
$GPGSA,A,3,23,16,26,10,27,13,18,29,15,,,,1.49,0.92,1.17*00
$GPGSV,4,1,14,08,02,324,,10,50,268,27,13,08,036,08,15,36,052,18*73
$GPGSV,4,2,14,16,16,267,11,18,65,062,27,23,71,345,21,24,13,106,14*72
$GPGSV,4,3,14,26,07,240,13,27,33,311,15,29,20,159,23,32,15,198,15*7A
$GPGSV,4,4,14,46,46,203,,48,47,197,*7D
$GPGLL,3606.62165,N,11504.30393,W,191949.00,A,A*78
$GPRMC,191950.00,A,3606.62202,N,11504.30384,W,0.434,,060823,,,A*61
$GPVTG,,T,,M,0.434,N,0.804,K,A*2C
$GPGGA,191950.00,3606.62202,N,11504.30384,W,1,09,0.92,519.5,M,-26.6,M,,*64
$GPGSA,A,3,23,16,26,10,27,13,18,29,15,,,,1.49,0.92,1.17*00
$GPGSV,4,1,14,08,02,324,,10,50,268,27,13,08,036,08,15,36,052,19*72
$GPGSV,4,2,14,16,16,267,10,18,65,062,26,23,71,345,22,24,13,106,13*76
$GPGSV,4,3,14,26,07,240,12,27,33,311,13,29,20,159,22,32,15,198,13*7A
$GPGSV,4,4,14,46,46,203,,48,47,197,*7D
$GPGLL,3606.62202,N,11504.30384,W,191950.00,A,A*74
$GPRMC,191951.00,A,3606.62220,N,11504.30369,W,0.345,,060823,,,A*62
$GPVTG,,T,,M,0.345,N,0.640,K,A*23
$GPGGA,191951.00,3606.62220,N,11504.30369,W,1,09,0.92,519.1,M,-26.6,M,,*62
$GPGSA,A,3,23,16,26,10,27,13,18,29,15,,,,1.49,0.92,1.17*00
$GPGSV,4,1,14,08,02,324,,10,50,268,27,13,08,036,08,15,36,052,18*73
$GPGSV,4,2,14,16,16,267,10,18,65,062,26,23,71,345,22,24,13,106,11*74
$GPGSV,4,3,14,26,07,240,12,27,33,311,12,29,20,159,22,32,15,198,12*7A
$GPGSV,4,4,14,46,46,203,,48,47,197,*7D
$GPGLL,3606.62220,N,11504.30369,W,191951.00,A,A*76
$GPRMC,191952.00,A,3606.62257,N,11504.30365,W,0.527,,060823,,,A*6F
$GPVTG,,T,,M,0.527,N,0.976,K,A*2B
$GPGGA,191952.00,3606.62257,N,11504.30365,W,1,09,0.92,518.9,M,-26.6,M,,*64
$GPGSA,A,3,23,16,26,10,27,13,18,29,15,,,,1.49,0.92,1.17*00
$GPGSV,4,1,14,08,02,324,,10,50,268,28,13,08,036,08,15,36,052,18*7C
$GPGSV,4,2,14,16,16,267,10,18,65,062,26,23,71,345,22,24,13,106,11*74
$GPGSV,4,3,14,26,07,240,12,27,33,311,15,29,20,159,22,32,15,198,11*7E
$GPGSV,4,4,14,46,46,203,,48,47,197,*7D
$GPGLL,3606.62257,N,11504.30365,W,191952.00,A,A*79
$GPRMC,191953.00,A,3606.62244,N,11504.30357,W,0.050,,060823,,,A*68
$GPVTG,,T,,M,0.050,N,0.093,K,A*2C
$GPGGA,191953.00,3606.62244,N,11504.30357,W,1,09,0.92,518.9,M,-26.6,M,,*66
$GPGSA,A,3,23,16,26,10,27,13,18,29,15,,,,1.49,0.92,1.17*00
$GPGSV,4,1,14,08,02,324,,10,50,268,28,13,08,036,08,15,36,052,18*7C
$GPGSV,4,2,14,16,16,267,10,18,65,062,26,23,71,345,22,24,13,106,12*77
$GPGSV,4,3,14,26,07,240,12,27,33,311,14,29,20,159,22,32,15,198,10*7E
